osm_id,code,fclass,name,latitude,longitude
"21038927","5621",bus_stop,Marjane Drissia M6,33.562,-7.595
"21039195","5621",bus_stop,Afriquia RA,33.38,-7.567
"21045074","5621",bus_stop,Usine de Thé,33.601,-7.516
"21045148","5621",bus_stop,Aeropol,33.373,-7.567
"21450897","5621",bus_stop,Rue Melilia زنقة مليلية,34.023,-6.831
"25752374","5621",bus_stop,ISTAHT Mohammedia,33.705,-7.357
"26268470","5621",bus_stop,Sakani,33.604,-7.482
"27652229","5621",bus_stop,Beaugosse,33.9,-5.547
"62098812","5661",ferry_terminal,Tanger Ville,35.79,-5.804
"240947699","5661",ferry_terminal,,,
"260152119","5621",bus_stop,,34.055,-4.974
"260152137","5621",bus_stop,,34.06,-4.972
"279302232","5621",bus_stop,Résidence El Hamd,33.557,-7.543
"288084286","5651",airport,Cherif El Idrissi مطار الحسيمة الشريف الإدريسي,35.179,-3.841
"288209978","5621",bus_stop,,35.902,-5.297
"309968360","5622",bus_station,Gare Supratours,31.511,-9.767
"309969139","5622",bus_station,Grand Taxis,31.637,-7.997
"310263692","5622",bus_station,Gare Supratours محطة سوبراتور,31.63,-8.019
"319791271","5661",ferry_terminal,,,
"330347079","5621",bus_stop,Faculté (Mohammedia),33.702,-7.375
"332056637","5621",bus_stop,Moulay Thami,33.49,-7.812
"332057865","5621",bus_stop,Groupe Scolaire La Fourmilière,33.581,-7.665
"332058399","5621",bus_stop,Mosquée Tamaris,33.499,-7.867
"332063285","5621",bus_stop,Angle Sidi Abderrahmane/Boutaleb,33.571,-7.700
"332063371","5621",bus_stop,Morocco Mall,33.578,-7.704
"332068934","5621",bus_stop,Le Pacha,33.564,-7.629
"332202617","5621",bus_stop,ESITH,33.539,-7.662
"332478236","5621",bus_stop,Marché Central,33.899,-5.551
"334649216","5621",bus_stop,Consulat Espagne,33.591,-7.625
"353111101","5621",bus_stop,Centro de Salud - Polavieja,35.283,-2.942
"354977787","5641",taxi,,35.294,-2.941
"356264289","5621",bus_stop,C/ F. Rettschlag con C/ Pegaso,35.297,-2.958
"361156743","5621",bus_stop,Pza. Martín de Córdoba,35.29,-2.949
"366632481","5621",bus_stop,Centro Penitenciario,35.3,-2.944
"370041547","5621",bus_stop,General Astilleros - Hospital Militar,35.281,-2.941
"370057035","5621",bus_stop,Inst. Enrique Nieto,35.287,-2.951
"370363656","5621",bus_stop,J. Guerrero con E. Nieto,35.3,-2.948
"371558655","5621",bus_stop,Acima,35.779,-5.808
"388518138","5661",ferry_terminal,الغزوات,,
"408425279","5621",bus_stop,Lycée Lahlou,33.572,-7.622
"409089229","5621",bus_stop,Cité de l'Air,33.57,-7.665
"419780067","5651",airport,Base aérienne Ben Guerir ⴰⵍⵓⴳⵏ ⴰⴳⵏⵡⴰⵏ ⵏ ⴱⵏⴳⵔⵉⵔ قاعدة بن,32.125,-7.890
"424011207","5621",bus_stop,École Fahd Ibn Abdelaziz,35.768,-5.793
"424019040","5621",bus_stop,Place Mozart,35.772,-5.796
"424048318","5621",bus_stop,Les Arènes,33.59,-7.640
"424052421","5621",bus_stop,Lycée Ziriab,33.581,-7.652
"424092786","5621",bus_stop,APAEI,33.581,-7.632
"424092789","5621",bus_stop,Ibn Chahid,33.579,-7.633
"424093251","5621",bus_stop,Consulat de Russie,33.578,-7.630
"428467762","5621",bus_stop,Cour d'Appel,33.596,-7.603
"428473247","5621",bus_stop,Quartier Hôpitaux,33.577,-7.624
"428474227","5621",bus_stop,Marché des Fleurs,33.583,-7.620
"428476505","5621",bus_stop,Lycée Mohammed V,33.579,-7.615
"428476632","5621",bus_stop,Mosquée El Hoda,33.57,-7.612
"428587309","5621",bus_stop,OFPPT Bahmad,33.588,-7.594
"428612131","5621",bus_stop,Derb Milan,33.571,-7.581
"428617471","5621",bus_stop,Groupe 4 Moulay Rachid,33.568,-7.538
"428617477","5621",bus_stop,Forêt Verte,33.569,-7.534
"428625808","5621",bus_stop,Dior Chaâbi,33.597,-7.551
"428625814","5621",bus_stop,Carr. Zaraba,33.595,-7.557
"428638620","5621",bus_stop,Angle Rue des Pommes d'Or/Panoramique,33.55,-7.621
"428928544","5621",bus_stop,Usine Briq. RGE,33.664,-7.356
"428932530","5621",bus_stop,Espace La Pause,33.562,-7.572
"429316353","5621",bus_stop,Terminus Daouliz,33.603,-7.659
"429316559","5621",bus_stop,Clinique Ben Souda,33.586,-7.652
"429317114","5621",bus_stop,OFPPT El Hank,33.603,-7.647
"444379304","5622",bus_station,,34.036,-6.802
"446815128","5621",bus_stop,,31.373,-5.986
"455153529","5621",bus_stop,Caracolas,35.271,-2.951
"455457741","5621",bus_stop,Chemicals El Madina,33.547,-7.454
"455457746","5621",bus_stop,Dar El Baroud,33.546,-7.447
"455457751","5621",bus_stop,Centre Social (TM),33.543,-7.440
"455457753","5621",bus_stop,Château D Eau Tit Mellil,33.541,-7.434
"455489570","5621",bus_stop,Ain Sbaâ,33.614,-7.535
"455500366","5621",bus_stop,Âin Harrouda Centre,33.635,-7.452
"455500473","5621",bus_stop,Groupe Scolaire Kamel,33.615,-7.491
"455500484","5621",bus_stop,Mansouria,33.619,-7.479
"455502211","5621",bus_stop,Groupe Scolaire Elbayda,33.621,-7.485
"455730462","5621",bus_stop,Royal Golf Anfa,33.584,-7.658
"456479907","5621",bus_stop,Oliverie,33.586,-7.641
"456510091","5621",bus_stop,Derb Foukara,33.566,-7.608
"456519354","5621",bus_stop,Bni M'guild,33.571,-7.605
"456526084","5621",bus_stop,Sorexi,33.589,-7.589
"456526092","5621",bus_stop,École Le Nid,33.587,-7.586
"456529890","5621",bus_stop,Hay Mabrouka,33.566,-7.567
"457854022","5621",bus_stop,Moutana Ibn Harita,33.605,-7.509
"457930600","5621",bus_stop,Café Gattoss,33.623,-7.483
"458736828","5621",bus_stop,Kodia,33.586,-7.557
"458761367","5621",bus_stop,Cté Police Bernoussi,33.603,-7.520
"458761729","5621",bus_stop,Oulmess,33.572,-7.648
"458761792","5621",bus_stop,Café Kairaouan,33.56,-7.675
"459446230","5621",bus_stop,Droguerie Dakhla,33.545,-7.686
"459446235","5621",bus_stop,Zoubir,33.541,-7.683
"459460393","5621",bus_stop,Commissariat Azhar,33.603,-7.492
"459487392","5621",bus_stop,Bournazel,33.57,-7.558
"459488695","5621",bus_stop,Résidences Salma,33.549,-7.555
"459703621","5621",bus_stop,H.E.M.,33.531,-7.622
"459751806","5621",bus_stop,Café Grill Antik,33.532,-7.616
"459773155","5621",bus_stop,Centre Feminin,33.562,-7.602
"459996464","5621",bus_stop,Carrefour,33.574,-7.645
"460013217","5621",bus_stop,École Frères Safa,33.552,-7.584
"460013658","5621",bus_stop,Doha,33.591,-7.518
"460021258","5621",bus_stop,Oued Nassim,33.521,-7.665
"460021271","5621",bus_stop,Mosquée Nassim,33.52,-7.662
"460028053","5621",bus_stop,Hammam Nekhla,33.569,-7.653
"460028115","5621",bus_stop,Khozama,33.536,-7.675
"474996258","5621",bus_stop,Clinique Val Anfa,33.59,-7.653
"480675428","5621",bus_stop,Frontera Benienzar,35.271,-2.935
"485910991","5601",railway_station,Bouskoura,33.461,-7.652
"485940044","5601",railway_station,Ennassim,33.518,-7.658
"485949418","5601",railway_station,Mers Sultan,33.57,-7.609
"485952362","5601",railway_station,Mohammed V,33.374,-7.579
"535988842","5641",taxi,Grands Taxis,35.772,-5.802
"542729229","5621",bus_stop,Gendarmerie Royale,33.9,-5.538
"543979599","5621",bus_stop,Sidi Said,33.891,-5.578
"552065249","5622",bus_station,,35.196,-6.151
"566450739","5621",bus_stop,,35.89,-5.319
"566450850","5622",bus_station,Gare Routière,35.56,-5.371
"566450850","5621",bus_stop,Gare Routière,35.56,-5.371
"595776472","5641",taxi,,29.721,-8.973
"595776473","5621",bus_stop,,29.722,-8.974
"599316558","5641",taxi,,30.331,-9.410
"622178177","5621",bus_stop,,32.021,-4.479
"622472506","5641",taxi,grand taxi,30.331,-5.839
"622472511","5621",bus_stop,ctm,30.325,-5.840
"622478747","5621",bus_stop,,30.086,-6.873
"622489396","5621",bus_stop,,29.746,-7.972
"622576724","5641",taxi,,32.938,-5.669
"635975802","5601",railway_station,بوناكة,31.918,-7.947
"635977791","5601",railway_station,Settat ⵙⵟⵟⴰⵜ سطات,32.994,-7.624
"635981864","5601",railway_station,جمعة العرارشة,32.081,-7.957
"635981870","5601",railway_station,,32.578,-7.816
"647247735","5661",ferry_terminal,الحسيمة,35.246,-3.923
"651919952","5641",taxi,Grands taxis,35.167,-5.266
"659996331","5621",bus_stop,Pharmacie Camilia,35.773,-5.829
"660578091","5621",bus_stop,Place Djemaa Al Fnaa - Arset El Bilk,31.624,-7.991
"694673717","5602",railway_halt,Ain Taoujdate عين تاوجطات,33.934,-5.214
"724159119","5621",bus_stop,Centre Santé Bradaa,33.698,-7.368
"728518907","5621",bus_stop,Collège Yacoub Mansour,33.682,-7.388
"728518953","5621",bus_stop,Mosquée Mali,33.687,-7.390
"728534523","5621",bus_stop,Pharmacie Imane,33.679,-7.391
"728535729","5621",bus_stop,Lydec Alia,33.677,-7.394
"728555939","5621",bus_stop,Boulangerie La Volanté,33.681,-7.393
"728556057","5621",bus_stop,Pharmacie Imane,33.679,-7.391
"728556423","5621",bus_stop,Sté. Seita,33.679,-7.395
"728557093","5621",bus_stop,Lydec Alia,33.677,-7.394
"728591423","5621",bus_stop,Arrêt Tadla,33.689,-7.392
"760382902","5621",bus_stop,Tit Mellil,33.551,-7.487
"760382956","5621",bus_stop,Groupe Zina,33.554,-7.478
"762099478","5621",bus_stop,Rachidia,33.687,-7.381
"762123842","5621",bus_stop,M'Salla (Moh) 2,33.692,-7.374
"860436125","5641",taxi,,34.548,-4.640
"909316179","5622",bus_station,Supratours,30.42,-9.560
"1016725407","5651",airport,Aéroport de Casablanca Tit Mellil,33.597,-7.467
"1020287758","5621",bus_stop,Ain Maàza (Lycée Al Imam Ali),33.884,-5.537
"1021229973","5621",bus_stop,Résidence Achourouk,33.887,-5.499
"1025409497","5641",taxi,Station petit taxi,31.931,-4.426
"1042041424","5651",airport,Ouezzane Airport,34.794,-5.635
"1042041434","5651",airport,Ifrane Airport ⴰⵣⴰⴳⵯⵣ ⵏ ⵉⴼⵔⴰⵏ مطار إفران,33.503,-5.161
"1042041497","5651",airport,Aéroport Ben Slimane ⴰⵣⴰⴳⵯⵣ ⵏ ⴱⵏ ⵙⵍⵉⵎⴰⵏ مطار بن سليمان,33.655,-7.221
"1042041506","5651",airport,Aéroport Beni Mellal ⴰⵣⴰⴳⵯⵣ ⵏ ⴰⵢⵜ ⵎⵍⵍⴰⵍ مطار بني ملال,32.395,-6.328
"1042041514","5651",airport,Aéroport de Sidi Ifni مطار سيدي إيفني,29.371,-10.176
"1042041536","5651",airport,El Jadida Airport - CLOSED,33.232,-8.523
"1042041588","5651",airport,Kenitra Air Base ⴰⵍⵓⴳⵏ ⴰⴳⵏⵡⴰⵏ ⵏ ⵇⵏⵉⵟⵕⴰ قاعدة القنيطر,34.299,-6.596
"1042041602","5651",airport,Sidi Slimane Airport,34.233,-6.049
"1045299774","5601",railway_station,Gare d'El Jadida,33.219,-8.511
"1056404837","5601",railway_station,Ain Taoujdate,33.935,-5.214
"1092128463","5622",bus_station,Souk Al Had,35.028,-5.408
"1104663583","5601",railway_station,Fès-Médina,34.062,-4.958
"1104884043","5621",bus_stop,Bab Tizimi,33.9,-5.564
"1122269283","5621",bus_stop,Angle Oum Rabia/Naciri,33.561,-7.669
"1123540162","5621",bus_stop,Mosquée Ferrara,33.555,-7.686
"1129440771","5621",bus_stop,St-Vélodrome,33.59,-7.646
"1129440800","5621",bus_stop,Vélodrome,33.588,-7.645
"1129495637","5621",bus_stop,Sfax,33.589,-7.611
"1130779580","5621",bus_stop,Hassan II,33.583,-7.624
"1130782943","5621",bus_stop,Mers Sultan,33.585,-7.616
"1131163317","5655",helipad,,34.058,-6.736
"1131163371","5655",helipad,,34.06,-6.735
"1172636344","5661",ferry_terminal,Motril,,
"1182616058","5641",taxi,,31.511,-9.770
"1185669883","5641",taxi,,31.58,-9.540
"1185669894","5622",bus_station,,31.58,-9.539
"1187567327","5622",bus_station,Lima Bus 3 4 5 6,31.516,-9.765
"1187567337","5622",bus_station,Lima Bus 1 2,31.516,-9.766
"1187567338","5622",bus_station,Bab El Borj,31.5,-9.759
"1226364847","5641",taxi,,31.226,-7.675
"1242055763","5622",bus_station,gare routiere khouribga,32.885,-6.909
"1242056085","5621",bus_stop,Palais de Justice,32.888,-6.916
"1242057161","5621",bus_stop,Incia,32.888,-6.919
"1242098252","5621",bus_stop,Portail de la Liberte,32.877,-6.899
"1245964366","5601",railway_station,Marrakech مراكش,31.631,-8.017
"1245964442","5641",taxi,,31.629,-8.019
"1245964468","5641",taxi,,31.631,-8.017
"1246704348","5621",bus_stop,Parc Aquatique,33.45,-7.648
"1261487479","5621",bus_stop,Pasteur,33.574,-7.626
"1311854956","5603",tram_stop,Madinat Al Irfane مدينة العرفان,33.983,-6.864
"1311857650","5603",tram_stop,Cité Universitaire Souissi الحي الجامعي السويسي,33.986,-6.861
"1311859342","5603",tram_stop,Agdal-Avenue de France أكدال-شارع فرنسا,33.997,-6.849
"1311859666","5603",tram_stop,Nations Unies الأمم المتحدة,34,-6.844
"1311863524","5603",tram_stop,Tour Hassan,34.019,-6.827
"1326431614","5621",bus_stop,Lotissement Saklia,33.565,-7.694
"1352758637","5655",helipad,,35.826,-5.714
"1356504513","5641",taxi,tout direction,32.29,-9.236
"1356504522","5641",taxi,,32.303,-9.220
"1356504583","5641",taxi,قامرة,32.312,-9.231
"1357929879","5622",bus_station,8.12.17.18,32.294,-9.224
"1357929910","5622",bus_station,"6",32.307,-9.235
"1357929914","5622",bus_station,8.12.17.18,32.287,-9.229
"1357929918","5622",bus_station,"8.12",32.309,-9.231
"1357929932","5622",bus_station,8.12.17,32.3,-9.221
"1357929976","5622",bus_station,"6",32.307,-9.229
"1357929979","5622",bus_station,8.12.17,32.289,-9.228
"1357929999","5622",bus_station,"8.12",32.307,-9.228
"1357930010","5622",bus_station,8.12.18,32.308,-9.229
"1357930029","5622",bus_station,"6",32.306,-9.230
"1357930080","5622",bus_station,"6",32.306,-9.230
"1357930106","5622",bus_station,"8.12",32.309,-9.231
"1357930109","5622",bus_station,8.12.17,32.294,-9.224
"1357930123","5622",bus_station,4.6.18,32.31,-9.233
"1357930147","5622",bus_station,"6",32.306,-9.234
"1357930155","5622",bus_station,8.12.17,32.303,-9.221
"1357930166","5622",bus_station,"4.6",32.31,-9.233
"1357930179","5622",bus_station,8.12.17.18,32.289,-9.228
"1357930184","5622",bus_station,8.12.17.18,32.3,-9.221
"1357930191","5622",bus_station,8.12.17.18,32.303,-9.221
"1363052408","5622",bus_station,8.12.17,32.287,-9.229
"1363063171","5641",taxi,petit taxi,32.29,-9.236
"1384388703","5641",taxi,,32.112,-9.083
"1385104795","5603",tram_stop,Gare de Salé محطة القطار سلا,34.038,-6.816
"1385104799","5603",tram_stop,Diar ديار,34.041,-6.815
"1385104813","5603",tram_stop,Hay Karima حي كريمة,34.054,-6.794
"1385104814","5603",tram_stop,Tabriquet تابريكت,34.048,-6.801
"1385104815","5603",tram_stop,Mohammed V-Opéra محمد الخامس-أوبرا,34.043,-6.811
"1385104817","5603",tram_stop,Place du 16 Novembre ساحة 16 نونبر,34.025,-6.825
"1385104828","5603",tram_stop,La Poste البريد,34.045,-6.807
"1385128920","5603",tram_stop,Arrazi الرازي,34.035,-6.813
"1385128927","5603",tram_stop,Ibn Rochd ابن رشد,33.989,-6.858
"1385128949","5603",tram_stop,Ibn Sina ابن سينا,33.995,-6.852
"1385128950","5603",tram_stop,Place de Russie ساحة روسيا,34.019,-6.850
"1385128952","5603",tram_stop,Hassan II الحسن الثاني,34.035,-6.800
"1385128955","5603",tram_stop,Ibn Khaldoun ابن خلدون,34.004,-6.843
"1385128965","5603",tram_stop,Hôpital Moulay Youssef,34.011,-6.859
"1385128984","5603",tram_stop,Bab El Had باب الحد,34.021,-6.843
"1385128993","5603",tram_stop,Sidi Mohammed Ben Abdellah,34.016,-6.855
"1385129014","5603",tram_stop,Place Al Joulane L2,34.019,-6.831
"1385129016","5603",tram_stop,Bettana بطانة,34.035,-6.807
"1399376145","5641",taxi,,31.634,-7.999
"1414114263","5621",bus_stop,Derb Kabir,33.572,-7.596
"1414545740","5621",bus_stop,IPUT,33.56,-7.601
"1414545752","5621",bus_stop,Koréa,33.562,-7.598
"1414604443","5621",bus_stop,Café Idouar Ice,33.534,-7.613
"1414604460","5621",bus_stop,Renault QO,33.535,-7.610
"1414604473","5621",bus_stop,Pharmacie Omaria,33.536,-7.602
"1414604477","5621",bus_stop,École Bab Andalou,33.537,-7.606
"1415476513","5621",bus_stop,Mekanssa,33.533,-7.584
"1415476689","5621",bus_stop,Café Achkid,33.541,-7.580
"1415538924","5621",bus_stop,Olibya (Mohammed VI),33.547,-7.584
"1415786939","5621",bus_stop,,33.257,-8.504
"1416772849","5621",bus_stop,Hay El Masjid,33.562,-7.607
"1416772853","5621",bus_stop,Hay El Masjid,33.563,-7.607
"1416772901","5621",bus_stop,Pharmacie Aicha,33.563,-7.601
"1419624332","5622",bus_station,,28.428,-11.110
"1419624333","5641",taxi,,28.435,-11.104
"1447469954","5655",helipad,,35.55,-5.963
"1447932139","5621",bus_stop,Rond Point Merchich,33.452,-7.522
"1457214372","5621",bus_stop,École Chahid Abdellah Hadaoui,33.538,-7.425
"1480599791","5601",railway_station,Souk el Arba du Gharb,34.685,-5.998
"1480989522","5601",railway_station,Matmata مطماطة,34.117,-4.517
"1481054778","5601",railway_station,,34.322,-3.145
"1481071655","5601",railway_station,El Aïoun Sidi Mellouk العيون سيدي ملوك,34.584,-2.511
"1481071911","5601",railway_station,Beni Oukil,34.629,-2.052
"1481325942","5601",railway_station,Tendrara,33.041,-1.944
"1481327305","5601",railway_station,Tiouli تيولي,34.367,-1.835
"1481327698","5601",railway_station,Aïn Bni Mathar عين بني مطهر,34.018,-2.023
"1481327752","5601",railway_station,Oued Heimer وادي الحيمر,34.45,-1.899
"1481328226","5601",railway_station,El Fouchal,33.814,-1.995
"1481328664","5601",railway_station,Jnane Krater,33.573,-1.947
"1481425129","5601",railway_station,gare de Bouznika,33.79,-7.162
"1484989796","5621",bus_stop,Commune Sidi Hajjaj,33.54,-7.414
"1497318276","5621",bus_stop,Contenair Oulad Salh,33.418,-7.672
"1497318285","5621",bus_stop,Sté. Samifi,33.441,-7.655
"1503506294","5621",bus_stop,Municipalité Tit Mellil,33.556,-7.483
"1503506780","5621",bus_stop,Municipalité Tit Mellil,33.556,-7.483
"1526214148","5621",bus_stop,Relax,33.899,-5.518
"1534867006","5641",taxi,grand taxis,35.562,-5.374
"1538535031","5621",bus_stop,ONEP Bni Yakh,33.658,-7.347
"1538610105","5621",bus_stop,Pharmacie Khobzi,33.663,-7.355
"1539081452","5621",bus_stop,Dar Haj Moussa,33.55,-7.463
"1540573047","5601",railway_station,Facultés,33.541,-7.650
"1540612123","5601",railway_station,L'Oasis,33.555,-7.631
"1540882839","5621",bus_stop,H.E.M.,33.531,-7.622
"1542627038","5621",bus_stop,Entree Quartier Erac,32.884,-6.933
"1554272214","5621",bus_stop,Taxi Deroua,33.374,-7.542
"1554778737","5641",taxi,Grand Taxi to Volubilis,33.899,-5.554
"1558144707","5601",railway_station,Guercif جرسيف,34.23,-3.349
"1576269520","5641",taxi,,34.941,-3.534
"1578862507","5622",bus_station,,35.234,-3.930
"1581960970","5601",railway_station,Nador Ville مدينة الناظور,35.184,-2.928
"1588103622","5601",railway_station,Gare de Meknès,33.897,-5.532
"1589080789","5641",taxi,Grand Taxi Ouislane,33.914,-5.486
"1589080919","5621",bus_stop,Diour Doha,33.922,-5.493
"1589080920","5621",bus_stop,Diour Fiach,33.922,-5.489
"1589623514","5621",bus_stop,Pont Hamria,33.897,-5.541
"1589623716","5621",bus_stop,Kharrouba,33.9,-5.525
"1589623725","5621",bus_stop,Kharrouba,33.9,-5.526
"1589623835","5621",bus_stop,ISTA Sidi Baba,33.904,-5.573
"1589644540","5621",bus_stop,Délégation du MEN,33.88,-5.565
"1589896828","5621",bus_stop,Anciens Combattants,33.904,-5.524
"1589903106","5621",bus_stop,Marché Central,33.9,-5.551
"1596350655","5621",bus_stop,Wifak,33.895,-5.580
"1596555745","5655",helipad,,35.593,-5.330
"1601582236","5641",taxi,Taxi to Todra Gorge,31.522,-5.531
"1601789981","5621",bus_stop,,33.867,-5.581
"1603451973","5621",bus_stop,Touarga (Lot Radia Mabrouka),33.877,-5.568
"1606684234","5622",bus_station,CTM,29.719,-8.971
"1606684236","5622",bus_station,"Jawhara, El Hilal",29.721,-8.973
"1606684237","5622",bus_station,STCR,29.72,-8.973
"1608165536","5621",bus_stop,Mosquée Mohammadi,33.868,-5.576
"1608165641","5621",bus_stop,Souk Mabrouka,33.88,-5.573
"1608165929","5621",bus_stop,ISTA Sidi Baba,33.903,-5.573
"1608165932","5621",bus_stop,Sijilmassa,33.873,-5.575
"1608166002","5621",bus_stop,Bab Jdid,33.897,-5.574
"1609235353","5621",bus_stop,Stade D'honneur (Eglise),33.892,-5.538
"1615011596","5641",taxi,Taza - Gare routière,34.232,-4.007
"1620720066","5621",bus_stop,Zouitina Entrée,33.856,-5.515
"1631787343","5622",bus_station,Station Bus Terminus,33.991,-6.736
"1635110408","5641",taxi,Grand Taxis,29.58,-10.035
"1653197100","5603",tram_stop,Place Al Joulane L1,34.018,-6.831
"1653197101","5603",tram_stop,Bab Chellah باب شالة,34.024,-6.834
"1653197102","5603",tram_stop,Bab Rouah باب الرواح,34.012,-6.839
"1653197103","5603",tram_stop,Bibliothèque Nationale,34.009,-6.843
"1653197107","5603",tram_stop,Medina Rabat الرباط المدينة العتيقة,34.022,-6.839
"1653197109","5603",tram_stop,Mohammed V - Gare de Rabat,34.016,-6.836
"1654142232","5603",tram_stop,Pont Hassan II قنطرة الحسن الثاني,34.025,-6.822
"1654158466","5603",tram_stop,Bab Lamrissa باب لمريسة,34.032,-6.819
"1660576934","5622",bus_station,CTM,33.526,-5.115
"1660602704","5641",taxi,,33.899,-5.546
"1660843258","5641",taxi,grand taxi,30.679,-9.483
"1664263860","5601",railway_station,Ras El Ma,33.989,-5.107
"1680913224","5621",bus_stop,Oulad Salh,33.377,-7.692
"1684537914","5621",bus_stop,Shuttle To Tanger Med,35.769,-5.803
"1686960363","5641",taxi,"Grands taxis Akchour, Oued Laou, Dar Akouba سيارات الأجرة الكبرى أقشور، وا",35.17,-5.269
"1686960647","5641",taxi,grand taxi سيارات الأجرة الكبرى,35.244,-5.182
"1686960733","5641",taxi,Grands Taxis Tetouan & Tanger,35.169,-5.269
"1686960797","5641",taxi,grand taxis Larache,35.465,-6.031
"1686960800","5641",taxi,grand taxis,35.229,-5.322
"1686960811","5601",railway_station,Asilah,35.482,-6.024
"1686960867","5641",taxi,Grand Taxis,35.192,-6.153
"1686960922","5641",taxi,grand taxis سيارات الأجرة الكبرى,35.449,-5.092
"1686961116","5641",taxi,grand taxis Tanger,35.466,-6.031
"1686961198","5641",taxi,Petits taxis,35.168,-5.267
"1687018970","5641",taxi,grand taxi Oued Laou سيارات الأجرة الكبرى وادي لو,35.569,-5.363
"1687718627","5641",taxi,grand taxis,34.466,-5.508
"1687718670","5641",taxi,Petite taxis,34.06,-4.982
"1687718689","5641",taxi,Grand Taxis Azrou/Ifrane,34.031,-4.997
"1687718716","5621",bus_stop,,34.043,-5.002
"1687718723","5641",taxi,Petits taxis,34.043,-5.003
"1687729160","5641",taxi,,35.727,-5.911
"1687729212","5641",taxi,Grand Taxis Tanger,35.716,-5.904
"1690522679","5621",bus_stop,SGS,33.624,-7.506
"1690657889","5621",bus_stop,Arrondissement Police Qods,33.616,-7.498
"1690658213","5621",bus_stop,Hay Mabrouka,33.566,-7.567
"1690658394","5621",bus_stop,Marjane Aïn Sbaâ,33.596,-7.530
"1690658869","5621",bus_stop,Espace La Pause,33.562,-7.572
"1693979552","5621",bus_stop,Mosquée Lalla Asma,33.575,-7.540
"1693979871","5621",bus_stop,Sté. Sinfa,33.569,-7.519
"1693979873","5621",bus_stop,Mosquée Lalla Asma,33.575,-7.540
"1695164414","5621",bus_stop,Groupe Scolaire Anoual,33.571,-7.579
"1696704153","5621",bus_stop,Groupe Scolaire Jules Ferry,33.691,-7.371
"1696704856","5621",bus_stop,Lycée Technique (Mohammedia),33.706,-7.365
"1698212152","5621",bus_stop,,34.216,-4.008
"1698212166","5621",bus_stop,,34.204,-4.017
"1698212179","5621",bus_stop,,34.219,-4.006
"1698212185","5621",bus_stop,,34.224,-4.008
"1698212190","5621",bus_stop,,34.221,-4.008
"1698212194","5622",bus_station,CTM,34.222,-4.008
"1698212199","5601",railway_station,Taza تازة,34.233,-4.009
"1698212210","5621",bus_stop,,34.205,-4.015
"1698212220","5621",bus_stop,,34.213,-4.012
"1698212228","5641",taxi,Grand Taxis Bab Bouidir,34.203,-4.017
"1698212257","5621",bus_stop,,34.221,-4.008
"1698212269","5641",taxi,Grand Taxis,34.222,-4.011
"1698212271","5621",bus_stop,,34.222,-4.008
"1698248375","5641",taxi,Grand Taxis,34.997,-5.901
"1698666997","5621",bus_stop,Taza Haute,34.209,-4.015
"1700506828","5621",bus_stop,Mandarouna,33.529,-7.617
"1701619528","5641",taxi,Grands Taxis,34.046,-5.005
"1746196117","5621",bus_stop,École Bab Andalou,33.537,-7.606
"1746196131","5621",bus_stop,Sports Plazza,33.546,-7.632
"1746196157","5621",bus_stop,Sports Plazza,33.546,-7.632
"1755434121","5621",bus_stop,Hay El Falah,33.559,-7.550
"1784000750","5622",bus_station,,30.694,-6.447
"1784203847","5601",railway_station,Hassi Berkane,34.869,-2.904
"1786963275","5641",taxi,,34.673,-4.627
"1787588260","5641",taxi,Grand taxi,34.537,-4.638
"1793977625","5621",bus_stop,Lot Walili,33.94,-5.216
"1824581019","5621",bus_stop,,33.852,-6.853
"1824581024","5621",bus_stop,,33.857,-6.856
"1824603746","5621",bus_stop,,33.985,-6.853
"1824603809","5621",bus_stop,,33.985,-6.851
"1824603859","5641",taxi,,33.985,-6.852
"1824603869","5641",taxi,,33.983,-6.850
"1824603870","5621",bus_stop,,33.985,-6.850
"1824603937","5641",taxi,,33.987,-6.854
"1833683225","5641",taxi,,35.006,-3.540
"1835989681","5641",taxi,,35.239,-3.928
"1838270426","5621",bus_stop,Lmzabienne,33.514,-7.588
"1838270432","5621",bus_stop,Mandarouna,33.529,-7.617
"1840019065","5641",taxi,,31.635,-7.991
"1848117149","5621",bus_stop,Café Haouzia,33.563,-7.570
"1848422166","5621",bus_stop,Showroom,33.601,-7.541
"1848485600","5621",bus_stop,Port,33.709,-7.402
"1848544441","5621",bus_stop,L'Academie,33.57,-7.668
"1849018701","5621",bus_stop,Mosquée Mali,33.687,-7.390
"1849018727","5621",bus_stop,Arrêt Tadla,33.689,-7.392
"1849018804","5621",bus_stop,Gare Routière Mohammedia,33.692,-7.391
"1849019214","5621",bus_stop,Bradâa,33.7,-7.371
"1849019215","5621",bus_stop,Bradâa,33.7,-7.371
"1849019247","5621",bus_stop,Salam,33.7,-7.360
"1849019257","5621",bus_stop,Salam,33.701,-7.359
"1849019274","5621",bus_stop,Riad Salam,33.701,-7.355
"1849019278","5621",bus_stop,Mosquée Riad Salam,33.701,-7.357
"1849019399","5621",bus_stop,Résidence Fleur de Lys,33.705,-7.369
"1849019426","5621",bus_stop,Faculté Sciences Mohammedia,33.705,-7.360
"1849432507","5621",bus_stop,Lahraouienne,33.551,-7.531
"1849432556","5621",bus_stop,Collège El Youssi,33.556,-7.536
"1849432558","5621",bus_stop,Collège El Youssi,33.556,-7.536
"1849433210","5621",bus_stop,Mosquée Salam 2,33.586,-7.482
"1849433213","5621",bus_stop,Mosquée Salam 2,33.586,-7.482
"1849433331","5621",bus_stop,Bureau Police Anassi,33.59,-7.494
"1849433378","5621",bus_stop,Anassi,33.592,-7.490
"1849519895","5621",bus_stop,Sté. Les Assfa,33.568,-7.512
"1849822573","5621",bus_stop,Atlanta Sport,33.54,-7.681
"1849822677","5621",bus_stop,Riad Oulfa,33.554,-7.701
"1849822869","5621",bus_stop,Rond Point Morocco Mall,33.571,-7.701
"1851617492","5601",railway_station,,34.048,-5.005
"1853230601","5621",bus_stop,Salle Corniche,33.572,-7.688
"1853230690","5621",bus_stop,École Sidi Abderrahmane,33.575,-7.701
"1853870182","5621",bus_stop,Droguerie Tamariss,33.494,-7.876
"1853870187","5621",bus_stop,Pharmacie Oulad Daoued,33.497,-7.877
"1853870215","5621",bus_stop,Fouala,33.5,-7.878
"1856357527","5621",bus_stop,Residencia de Mayores H-Salma,35.278,-2.950
"1856357943","5621",bus_stop,C. P. Anselmo Pardo,35.284,-2.949
"1857944645","5641",taxi,,35.569,-5.372
"1857944649","5641",taxi,,35.569,-5.374
"1865067683","5621",bus_stop,Groupe Zina,33.554,-7.478
"1866475919","5641",taxi,,34.038,-4.997
"1867480200","5601",railway_station,gare Skhirat,33.855,-7.039
"1871674762","5601",railway_station,Gare Ain Dalia,35.662,-5.822
"1872001921","5622",bus_station,Grand Hôtel,35.778,-5.348
"1872001921","5621",bus_stop,Grand Hôtel,35.778,-5.348
"1872002247","5622",bus_station,Marina,35.755,-5.347
"1872002247","5621",bus_stop,Marina,35.755,-5.347
"1872002938","5622",bus_station,Marina 2,35.761,-5.348
"1872002938","5621",bus_stop,Marina 2,35.761,-5.348
"1872003110","5622",bus_station,Marina,35.753,-5.346
"1872003110","5621",bus_stop,Marina,35.753,-5.346
"1872003113","5622",bus_station,Marina Smir,35.75,-5.346
"1872003113","5621",bus_stop,Marina Smir,35.75,-5.346
"1873948804","5621",bus_stop,Café Route Andalouss,33.531,-7.620
"1929330437","5651",airport,,27.41,-9.073
"1932875143","5621",bus_stop,Mosquée de Lissasfa - AT,33.534,-7.670
"1936060936","5621",bus_stop,Tarik El Khir,33.609,-7.496
"1944423841","5621",bus_stop,,31.518,-7.850
"1944423842","5641",taxi,,31.518,-7.850
"1945407440","5621",bus_stop,Carr. Schneider,33.565,-7.668
"1952747296","5621",bus_stop,Ezzahraoui,32.872,-6.904
"1952747305","5621",bus_stop,Université Hassan 1,32.87,-6.905
"1974305991","5621",bus_stop,Bus stop,30.472,-8.875
"2009477171","5641",taxi,Taxi Stand,33.589,-7.592
"2020436714","5621",bus_stop,Taghazout Village,30.544,-9.708
"2031101305","5641",taxi,,31.511,-9.772
"2039854157","5641",taxi,Marjane,33.856,-5.581
"2126803379","5621",bus_stop,Cité Plateau,33.568,-7.637
"2131227018","5621",bus_stop,"35",30.359,-9.529
"2131227019","5621",bus_stop,"36",30.359,-9.529
"2131227023","5621",bus_stop,"42",30.359,-9.529
"2131251718","5621",bus_stop,"41",30.359,-9.529
"2131251719","5621",bus_stop,"40",30.359,-9.529
"2134361904","5622",bus_station,Studio,35.742,-5.344
"2134361904","5621",bus_stop,Studio,35.742,-5.344
"2134361957","5622",bus_station,Kabila,35.72,-5.338
"2134361957","5621",bus_stop,Kabila,35.72,-5.338
"2134361984","5622",bus_station,Gorna,35.677,-5.321
"2134361984","5621",bus_stop,Gorna,35.677,-5.321
"2135428292","5621",bus_stop,Préfecture Ain Chock,33.521,-7.652
"2135428324","5621",bus_stop,Mediouna,33.458,-7.517
"2135428347","5621",bus_stop,Hay el Wahda,33.54,-7.541
"2138248332","5621",bus_stop,Gare Routière 2,33.576,-7.590
"2138248623","5621",bus_stop,Gare Routière 2,33.576,-7.589
"2138359221","5621",bus_stop,Place Maréchal,33.595,-7.620
"2138956989","5641",taxi,,31.137,-7.921
"2139416372","5621",bus_stop,APAEI,33.581,-7.632
"2146498991","5621",bus_stop,Pharmacie Rachidi,33.444,-7.649
"2148151975","5622",bus_station,,29.693,-9.724
"2148175588","5641",taxi,,29.695,-9.734
"2150659522","5601",railway_station,Gare De Melloussa,35.722,-5.660
"2156449995","5601",railway_station,Bouarfa بوعرفة,32.519,-1.966
"2157136183","5601",railway_station,Mengoub,32.264,-2.246
"2161256820","5621",bus_stop,Doha,33.591,-7.517
"2161260949","5621",bus_stop,Anapec SM,33.581,-7.544
"2163661965","5601",railway_station,Gare de Mechraa Bel Ksiri,34.577,-5.961
"2180606203","5621",bus_stop,Municipalité Daroua,33.385,-7.538
"2180606216","5621",bus_stop,Municipalité Nouaceur,33.373,-7.548
"2180731298","5601",railway_station,Selouane سلوان,35.05,-2.940
"2186506135","5621",bus_stop,Pâtisserie La Pensée,33.58,-7.654
"2186506441","5621",bus_stop,Café Bouchiki,33.572,-7.676
"2186528781","5621",bus_stop,Sté. Sinfa,33.57,-7.519
"2187370052","5621",bus_stop,Hay Drissia,33.566,-7.588
"2187370068","5621",bus_stop,Centre Feminin,33.562,-7.602
"2187370276","5621",bus_stop,Abdelmoumen,33.571,-7.626
"2187447291","5621",bus_stop,École Elanouar,33.523,-7.663
"2187447307","5621",bus_stop,Pharmacie Ouaadoudi,33.527,-7.661
"2187451040","5621",bus_stop,Dar Lhamra,33.571,-7.670
"2191690280","5601",railway_station,Gare du Kceibya,34.291,-6.069
"2193230130","5622",bus_station,CTM,35.567,-5.372
"2194536439","5601",railway_station,Gare de Khemisset Chaouia اخميسات الشاوية,32.827,-7.724
"2194543435","5601",railway_station,Gare De Machraa Ben Abbou مشرع بن عبو,32.653,-7.788
"2197519144","5641",taxi,,31.632,-7.993
"2202533379","5601",railway_station,Gare de Mrizigue,32.846,-7.098
"2207627589","5621",bus_stop,Daouliz,33.603,-7.659
"2208415455","5661",ferry_terminal,Tanger-Med ferry terminal,35.88,-5.507
"2211366184","5641",taxi,,30.994,-8.182
"2215728118","5601",railway_station,Gare de Benguerir محطة ابن جرير,32.247,-7.958
"2235605385","5603",tram_stop,Boulevard Bahmad,33.595,-7.586
"2235605392","5603",tram_stop,Facultés Terminus,33.546,-7.657
"2235605394","5603",tram_stop,Ali Yata علي يعتة,33.591,-7.570
"2235605401","5603",tram_stop,Zenith,33.541,-7.643
"2235605408","5603",tram_stop,Bachkou,33.565,-7.627
"2235605416","5603",tram_stop,La Résistance,33.593,-7.603
"2235605417","5603",tram_stop,Technopark,33.544,-7.639
"2235605418","5603",tram_stop,Sidi Abderrahmane,33.572,-7.669
"2235605421","5603",tram_stop,Facultés Terminus,33.546,-7.657
"2235605426","5603",tram_stop,Gare Oasis,33.554,-7.631
"2235605430","5603",tram_stop,Sidi Abderrahmane,33.572,-7.669
"2235605431","5603",tram_stop,Anciens Abattoirs,33.591,-7.579
"2235605454","5603",tram_stop,Hay Raja,33.577,-7.548
"2235605467","5603",tram_stop,Technopark,33.544,-7.639
"2235605472","5603",tram_stop,Faculté de Médecine,33.575,-7.626
"2235605474","5603",tram_stop,Mekka,33.558,-7.630
"2235605477","5603",tram_stop,Cité de l'Air,33.568,-7.664
"2235605483","5603",tram_stop,Boulevard Bahmad,33.595,-7.586
"2235605581","5603",tram_stop,Littoral,33.581,-7.675
"2235605616","5603",tram_stop,Marche Central,33.595,-7.613
"2235605622","5603",tram_stop,Mohamed Zefzaf,33.582,-7.509
"2235605636","5603",tram_stop,Bachkou,33.565,-7.627
"2235605643","5603",tram_stop,Hôpital Sidi Moumen,33.577,-7.518
"2235605648","5603",tram_stop,Zenith,33.541,-7.643
"2235605651","5603",tram_stop,Avenue Hassan II,33.584,-7.623
"2235605654","5603",tram_stop,Ennassim,33.585,-7.505
"2235605660","5603",tram_stop,Hay Hassani,33.577,-7.673
"2235605663","5603",tram_stop,Hay Mohammadi,33.586,-7.567
"2235605664","5603",tram_stop,Cité de l'Air,33.568,-7.664
"2235605681","5603",tram_stop,Littoral,33.581,-7.675
"2235605682","5603",tram_stop,Centre de Maintenance,33.58,-7.513
"2235605686","5603",tram_stop,Hay Mohammadi,33.586,-7.567
"2235605690","5603",tram_stop,Attacharouk,33.574,-7.524
"2235605694","5603",tram_stop,Casa Voyageurs,33.59,-7.592
"2235605718","5603",tram_stop,La Résistance,33.593,-7.603
"2235605719","5603",tram_stop,Grande Ceinture,33.59,-7.574
"2235605753","5603",tram_stop,Abdelmoumen,33.571,-7.626
"2235605755","5603",tram_stop,Place des Nations Unies,33.595,-7.618
"2235605765","5603",tram_stop,Panoramique,33.547,-7.632
"2235605781","5603",tram_stop,Ghandi,33.569,-7.645
"2235605791","5603",tram_stop,Panoramique,33.547,-7.632
"2235605803","5603",tram_stop,Forces Auxilliaires,33.575,-7.539
"2235605807","5603",tram_stop,Sidi Moumen Terminus,33.587,-7.502
"2235605809","5603",tram_stop,Hay Hassani,33.577,-7.673
"2235605816","5603",tram_stop,Ghandi,33.569,-7.645
"2235605817","5603",tram_stop,Hay Raja,33.577,-7.549
"2235605822","5603",tram_stop,Avenue Hassan II,33.584,-7.623
"2235605828","5603",tram_stop,Ain Diab Plage,33.587,-7.681
"2235605835","5603",tram_stop,Mekka,33.558,-7.630
"2235605840","5603",tram_stop,Forces Auxilliaires,33.575,-7.539
"2238332082","5603",tram_stop,Chouhada,33.589,-7.568
"2238332146","5603",tram_stop,Chouhada,33.589,-7.568
"2238332160","5603",tram_stop,Casa Voyageurs,33.59,-7.592
"2238332192","5603",tram_stop,Place Al Yassir,33.593,-7.597
"2238332220","5621",bus_stop,PTT Chouhada,33.587,-7.567
"2238332258","5603",tram_stop,Ibn Tachfine,33.581,-7.563
"2238332260","5603",tram_stop,Ibn Tachfine,33.581,-7.563
"2238332263","5603",tram_stop,Mohamed Diouri,33.594,-7.608
"2238332295","5621",bus_stop,Mosquée Hay Mohammadi,33.586,-7.565
"2238332342","5603",tram_stop,Okba Ibn Nafii,33.573,-7.533
"2238332361","5603",tram_stop,Anciens Abattoirs,33.591,-7.579
"2238332373","5603",tram_stop,Mohamed Diouri,33.594,-7.608
"2238332391","5603",tram_stop,Place Al Yassir,33.593,-7.597
"2238332442","5603",tram_stop,Ali Yata علي يعتة,33.591,-7.570
"2238332460","5603",tram_stop,Grande Ceinture,33.59,-7.574
"2238332466","5603",tram_stop,Okba Ibn Nafii,33.573,-7.533
"2238405493","5603",tram_stop,Marche Central,33.595,-7.613
"2238405596","5603",tram_stop,Place des Nations Unies,33.595,-7.618
"2238405601","5603",tram_stop,Place Mohammed V,33.59,-7.620
"2238447172","5603",tram_stop,Faculté de Médecine,33.575,-7.626
"2238447184","5603",tram_stop,Wafasalaf,33.58,-7.625
"2238447186","5603",tram_stop,Wafasalaf,33.58,-7.625
"2238483722","5603",tram_stop,Gare Oasis,33.554,-7.631
"2238483732","5603",tram_stop,Abdelmoumen,33.571,-7.626
"2238568797","5603",tram_stop,Gare Casa Sud,33.542,-7.651
"2238568803","5603",tram_stop,Gare Casa Sud,33.542,-7.651
"2238613690","5603",tram_stop,Beauséjour,33.564,-7.648
"2238613698","5603",tram_stop,Beauséjour,33.564,-7.648
"2238635740","5603",tram_stop,Riviera,33.571,-7.636
"2238635742","5603",tram_stop,Riviera,33.571,-7.636
"2238747184","5621",bus_stop,Résidence Fady,33.552,-7.553
"2242811586","5621",bus_stop,Crèche Jeun'âge,33.545,-7.673
"2243125110","5621",bus_stop,Hay Dakhla,33.573,-7.608
"2244969139","5621",bus_stop,El Hank,33.603,-7.654
"2245014368","5621",bus_stop,St-Vélodrome,33.59,-7.646
"2248652103","5603",tram_stop,Sidi Moumen Terminus,33.587,-7.502
"2249521485","5621",bus_stop,Anapec SM,33.581,-7.544
"2296322099",,,,35.268,-2.952
"2296901743",,,,35.316,-2.954
"2297012896","5621",bus_stop,Cañada de Hidúm con Vía Láctea,35.298,-2.964
"2297461163","5621",bus_stop,Reina Regente 1,35.299,-2.955
"2297461165","5621",bus_stop,Reina Regente 2,35.299,-2.955
"2297461179","5621",bus_stop,Tadino de Martinengo con J. S. El Cano,35.297,-2.954
"2297479846","5621",bus_stop,C. de Cabrerizas con S. A. de Padua,35.296,-2.947
"2297504158","5621",bus_stop,C/ Méjico cruce R. Regente,35.303,-2.953
"2297504168","5621",bus_stop,C/ Méjico cruce R. Regente,35.303,-2.953
"2297855208","5661",ferry_terminal,Nador CF3,35.271,-2.927
"2297872972","5661",ferry_terminal,Nador,35.271,-2.919
"2297920641","5661",ferry_terminal,Nador CF2,35.271,-2.926
"2297920672","5601",railway_station,Bni Nsar (Ville) بني انصار,35.244,-2.932
"2297934615","5601",railway_station,Beni Ensar Port,35.265,-2.931
"2298084895","5601",railway_station,Nador Sud,35.163,-2.959
"2298404363","5661",ferry_terminal,Nador CF1,35.27,-2.926
"2299629069","5601",railway_station,Melga el Ouidane ملقى الويدان,34.572,-3.020
"2303596282","5601",railway_station,Oulad Rahou,34.775,-2.986
"2328215994","5641",taxi,,35.783,-5.811
"2328486894","5601",railway_station,,34.16,-5.710
"2328486902","5601",railway_station,Sidi Kacem,34.231,-5.719
"2328486906","5601",railway_station,,34.764,-5.978
"2329883259","5641",taxi,,30.935,-6.936
"2387487893","5621",bus_stop,Préfecture Ain Chock,33.521,-7.652
"2418877039","5601",railway_station,Mohammed V,33.374,-7.578
"2422407726","5621",bus_stop,Renault QO,33.535,-7.610
"2422411466",,,,33.537,-7.639
"2422411488","5621",bus_stop,Hôtel Ibis,33.537,-7.639
"2428391495","5621",bus_stop,Derb Foukara,33.566,-7.608
"2429582026","5601",railway_station,Casa Port,33.599,-7.612
"2434524280","5641",taxi,,33.858,-5.547
"2435192402","5641",taxi,Grand Taxi,34.065,-4.986
"2464634516","5641",taxi,Station de Taxi,33.697,-7.385
"2508393233","5603",tram_stop,Ain Diab Plage,33.587,-7.681
"2517671131","5622",bus_station,,32.768,-6.399
"2551780103","5621",bus_stop,Résidence Al Khayr,33.535,-7.725
"2551780354","5621",bus_stop,Rahma,33.536,-7.726
"2561974496","5622",bus_station,CTM bus station,30.416,-9.566
"2563673488","5601",railway_station,Gare de Ksar Sghir,35.846,-5.548
"2572663177","5641",taxi,,35.759,-5.938
"2572753127","5641",taxi,Taxi To Casabarata,35.784,-5.815
"2572753278","5641",taxi,"Taxi To Achakar, Boukhalef, Ziaten",35.78,-5.818
"2572775481","5601",railway_station,Temara,33.917,-6.931
"2572847671","5641",taxi,,35.79,-5.805
"2572847672","5661",ferry_terminal,Tanger Ville,35.789,-5.804
"2576518018","5601",railway_station,,34.239,-3.731
"2576704519","5601",railway_station,Azemmour,33.275,-8.343
"2584356723","5601",railway_station,اتواجيل,,
"2585734365","5621",bus_stop,Cté Police Bernoussi,33.603,-7.520
"2616766606","5621",bus_stop,Pharmacie Mekka,33.401,-7.534
"2633065578","5621",bus_stop,,31.596,-8.027
"2637471880","5641",taxi,Grand Taxi (Guercif),34.414,-2.895
"2637476149","5641",taxi,Grand Taxi (Oujda),34.413,-2.892
"2637477651","5641",taxi,Petit Taxi,34.409,-2.893
"2637555565","5601",railway_station,Ancienne Gare Routière محطة الحافلات القديمة,34.416,-2.894
"2676240398","5621",bus_stop,Riad Oulfa III,33.549,-7.705
"2697637586","5661",ferry_terminal,Puerto Comercial de Almería,,
"2717068041","5641",taxi,Gzoula,32.285,-9.228
"2729354092",,, ,33.373,-7.548
"2779947510","5655",helipad,,27.153,-13.226
"2779947521","5655",helipad,,27.153,-13.225
"2779947611","5655",helipad,,27.154,-13.225
"2780356993","5651",airport,مطار تفاريتي,26.154,-10.565
"2792041449","5641",taxi,Station des grands taxis,35.734,-5.881
"2792041450","5621",bus_stop,Arrêt de bus n° 1 et n° 2,35.734,-5.881
"2813320376","5621",bus_stop,Pharmacie El Fath,33.682,-7.391
"2815000404","5655",helipad,,25.15,-12.370
"2817076543","5621",bus_stop,,34.077,-6.767
"2819226556","5601",railway_station,Gare Rabat Ville,34.016,-6.837
"2819226592","5661",ferry_terminal,,34.028,-6.828
"2823593769","5621",bus_stop,Agence BMW,35.739,-5.772
"2849419581","5641",taxi,Taxi To Beni Makkeda,35.779,-5.813
"2849460570","5641",taxi,Taxis To R'milat Park,35.782,-5.820
"2849460571","5641",taxi,Taxi Stand For Souk Barra,35.769,-5.827
"2854147830","5641",taxi,Taxis To Birchifae,35.783,-5.815
"2854147834","5641",taxi,Taxis To Mesnana,35.783,-5.815
"2863376783","5641",taxi,,35.777,-5.814
"2880504228","5621",bus_stop,Résidence El Baida QO,33.614,-7.488
"2907705736","5641",taxi,,35.786,-5.813
"2907718875","5641",taxi,Taxis a Marjane,35.776,-5.814
"2909959504",,,,35.77,-5.804
"2926335303","5601",railway_station,Gare de Train Khouribga,32.884,-6.909
"2928483869","5601",railway_station,Gare de Laglaf,32.92,-6.722
"2941139197","5621",bus_stop,Centre de Santé SMJ,33.58,-7.544
"2951688088","5621",bus_stop,Mekanssa,33.533,-7.584
"2956576622","5621",bus_stop,Spécial Aluminium,33.543,-7.685
"2956576658","5621",bus_stop,Farah Salam,33.538,-7.696
"2964203647","5641",taxi,station grands taxis,33.892,-5.504
"2968255463","5641",taxi,,35.234,-3.930
"2968958468","5641",taxi,Grands Taxis,34.68,-1.908
"2969940219","5641",taxi,Grands Taxis,34.685,-1.909
"2969940220","5641",taxi,Grands Taxis,34.683,-1.908
"2969940221","5641",taxi,Grands Taxis,34.688,-1.915
"2969964168","5641",taxi,Grands Taxis,34.678,-1.909
"2972378141","5603",tram_stop,Pont Hassan II قنطرة الحسن الثاني,34.025,-6.822
"2972378149","5603",tram_stop,Mohammed V-Opéra محمد الخامس-أوبرا,34.043,-6.811
"2972388834","5603",tram_stop,Tabriquet تابريكت,34.048,-6.801
"2972388882","5603",tram_stop,Diar ديار,34.041,-6.815
"2972388898","5603",tram_stop,Gare de Salé محطة القطار سلا,34.038,-6.816
"2972388903","5603",tram_stop,Place du 16 Novembre ساحة 16 نونبر,34.025,-6.825
"2990165305","5601",railway_station,,35.117,-5.953
"2990165307",,,,35.01,-5.906
"2990165308","5601",railway_station,Arbaoua,34.892,-5.927
"2994962465","5621",bus_stop,Zone Administrative,32.881,-6.912
"2994962505","5621",bus_stop,La Province,32.896,-6.909
"3004032974","5641",taxi,,31.642,-8.002
"3010721541","5661",ferry_terminal,Puerto de Barcelona,,
"3018228175","5621",bus_stop,Laaouina Source,30.294,-9.458
"3018228176","5621",bus_stop,Ait Ouagmer,30.296,-9.459
"3024758198","5641",taxi,taxi kasita,34.939,-3.534
"3049351940","5621",bus_stop,Noor City,33.576,-7.531
"3055251824","5641",taxi,Taxi Enjil,33.364,-4.730
"3055267527","5622",bus_station,Autocar et Taxi,33.366,-4.730
"3058784047","5621",bus_stop,Plaza. de España,35.292,-2.937
"3058874068","5661",ferry_terminal,Melilla,35.291,-2.931
"3058893591","5661",ferry_terminal,Melilla,35.293,-2.929
"3058971785","5661",ferry_terminal,Melilla,35.291,-2.932
"3059701967","5621",bus_stop,Alfonso XIII - Base Militar 1,35.282,-2.951
"3059709329","5621",bus_stop,Alfonso XIII - Mercado Mayoristas,35.281,-2.948
"3060628586","5621",bus_stop,Vía Láctea Mezquita,35.299,-2.956
"3060628591","5621",bus_stop,Vía Láctea 3,35.299,-2.959
"3060650860","5621",bus_stop,Vía Láctea 2,35.299,-2.960
"3061157348",,,,35.293,-2.943
"3061613623","5621",bus_stop,Lotissement Malak,33.687,-7.347
"3065523787","5641",taxi,Grand Taxis,32.012,-6.718
"3067480607","5621",bus_stop,Caracolas,35.272,-2.950
"3069910071","5621",bus_stop,Vía Láctea 4,35.298,-2.958
"3072517363","5661",ferry_terminal,Nador CF4,35.272,-2.927
"3076211054","5641",taxi,Parada de Taxi del Aeropuerto de Melilla,35.277,-2.958
"3077328172","5621",bus_stop,G. Cabrelles - Mercado Central,35.295,-2.944
"3077385264","5621",bus_stop,Gral. Marina,35.292,-2.939
"3077456239","5621",bus_stop,Avda. de las Conchas - Mercadillo,35.275,-2.940
"3077459933","5621",bus_stop,C/ Gral. Villalba,35.278,-2.940
"3077900766","5621",bus_stop,Monte Maria Cristina,35.299,-2.944
"3091543518","5621",bus_stop,C/ Lope de Vega (Mercado),35.295,-2.944
"3091577258","5621",bus_stop,C. de Cabrerizas con S. A. de Padua,35.296,-2.948
"3091613523","5621",bus_stop,Acuartelamiento La Legión,35.306,-2.956
"3092430075","5621",bus_stop,Acuartelamiento La Legión,35.306,-2.956
"3092442890","5621",bus_stop,C/ J. Guerrero Zamora (Tiro Nacional),35.301,-2.949
"3092442891","5621",bus_stop,C/ J. Guerrero Zamora (Tiro Nacional),35.301,-2.949
"3092472472",,,,35.3,-2.948
"3092496012","5621",bus_stop,C/ Actor Luis Prendes,35.3,-2.949
"3092496013","5621",bus_stop,C/ Actor Luis Prendes,35.3,-2.949
"3092551479","5621",bus_stop,C/ Méjico con Travesía III,35.301,-2.951
"3092552099","5621",bus_stop,C/ Méjico con Travesía III,35.3,-2.951
"3092589810","5621",bus_stop,C/ Méjico Urb. Averroes,35.298,-2.950
"3092589811","5621",bus_stop,C/ Méjico Urb. Averroes,35.299,-2.950
"3092600684","5621",bus_stop,Cabrerizas con C/ Colombia,35.297,-2.949
"3092600685","5621",bus_stop,Cabrerizas con C/ Colombia,35.297,-2.949
"3093655428","5621",bus_stop,Pza. Torres Quevedo,35.294,-2.943
"3093665423","5621",bus_stop,Avda. Reyes Católicos,35.292,-2.944
"3093804373","5621",bus_stop,C/ Ibáñez Marín (Farmacia),35.291,-2.946
"3093808532","5621",bus_stop,C/ Ibáñez Marín (Farmacia),35.291,-2.946
"3093822065","5621",bus_stop,C/ Ibáñez Marín con Comte. Royo,35.293,-2.948
"3093835281","5621",bus_stop,Carretera Hidúm con Pedro Valdivia,35.294,-2.952
"3093835282","5621",bus_stop,Carretera Hidúm con Pedro Valdivia,35.294,-2.952
"3093840630","5621",bus_stop,Urb. Las Palmeras,35.295,-2.954
"3093860173","5621",bus_stop,C. P. León Sola,35.296,-2.955
"3093865766","5621",bus_stop,Mezquita,35.296,-2.957
"3093886294","5621",bus_stop,Cañada de Hidúm,35.297,-2.961
"3093891000","5621",bus_stop,Vía Láctea,35.299,-2.963
"3093892702","5621",bus_stop,Vía Láctea con acceso a R. Regente,35.3,-2.962
"3093893513","5621",bus_stop,Cruce con Pinares,35.301,-2.962
"3093899084","5621",bus_stop,Urb. Pinares,35.3,-2.960
"3093904803","5621",bus_stop,Vía Láctea 1,35.301,-2.961
"3093910036","5621",bus_stop,Vía Láctea 5,35.3,-2.956
"3094222329","5621",bus_stop,Avda. R. Católicos - Instituto L. Q.,35.291,-2.945
"3094273470","5621",bus_stop,Carretera Farhana - B° Constitución,35.293,-2.957
"3094273479","5621",bus_stop,Carretera Farhana - B° Constitución,35.293,-2.957
"3094283436","5621",bus_stop,Carretera Farhana - C. P. Buen Consejo,35.293,-2.962
"3094283437","5621",bus_stop,Carretera Farhana - C. P. Buen Consejo,35.293,-2.961
"3094316913","5621",bus_stop,Carretera Farhana - C. E. T. I.,35.292,-2.966
"3094316914","5621",bus_stop,Carretera Farhana - C. E. T. I.,35.292,-2.966
"3094327827","5621",bus_stop,Frontera de Farhana,35.291,-2.969
"3094346853","5621",bus_stop,Universidad,35.29,-2.953
"3094355258","5621",bus_stop,Plaza 1º de Mayo - Instituto L. Q.,35.29,-2.946
"3094361761","5621",bus_stop,Pza. Torres Quevedo,35.294,-2.943
"3094366002","5621",bus_stop,C/ Gran Capitán (1),35.295,-2.942
"3094368107","5621",bus_stop,C/ Gran Capitán con C/ Alférez Sanz,35.296,-2.944
"3095245900","5621",bus_stop,Comisaría P. N.,35.29,-2.940
"3095245923","5621",bus_stop,Comisaría P. N.,35.29,-2.940
"3095249835","5621",bus_stop,Actor Tallaví - Gota Leche,35.287,-2.941
"3095249836","5621",bus_stop,Actor Tallaví - Gota Leche,35.288,-2.941
"3095281245","5621",bus_stop,Colegio Reyes Católicos,35.286,-2.942
"3095323815","5621",bus_stop,Gral. Polavieja - Supersol,35.285,-2.942
"3095325000","5621",bus_stop,Álvaro de Bazán,35.284,-2.941
"3095343700","5621",bus_stop,Álvaro de Bazán - Urgencias,35.283,-2.941
"3095357217","5621",bus_stop,Minas del Rif,35.279,-2.939
"3095359529","5621",bus_stop,Plaza de la Goleta,35.28,-2.940
"3095361478","5621",bus_stop,Minas del Rif,35.279,-2.940
"3095362052","5621",bus_stop,Mercado del Real,35.277,-2.939
"3095362053","5621",bus_stop,Mercado del Real,35.277,-2.939
"3095368555","5621",bus_stop,C/ Legión con C/ Zamora,35.276,-2.941
"3095368556","5621",bus_stop,C/ Legión con C/ Salamanca,35.277,-2.941
"3095372108","5621",bus_stop,C/ Legión C. P. Real,35.276,-2.943
"3095372109","5621",bus_stop,C/ Legión C. P. Real,35.276,-2.943
"3095376925","5621",bus_stop,C/ Legión con C/ Cataluña,35.275,-2.944
"3095377357","5621",bus_stop,C/ Legión con C/ Cataluña,35.275,-2.944
"3095377421","5621",bus_stop,C/ Legión con C/ Andalucía,35.275,-2.947
"3095377422","5621",bus_stop,C/ Legión con C/ Andalucía,35.275,-2.946
"3095381081","5621",bus_stop,Urb. Altos del Real,35.274,-2.948
"3095381656","5621",bus_stop,Urb. Altos del Real,35.273,-2.949
"3095385995","5621",bus_stop,,35.27,-2.951
"3095457391","5621",bus_stop,General Astilleros - Instituto R. V. E.,35.277,-2.938
"3095560016","5621",bus_stop,General Astilleros - C. Gamez Moron,35.275,-2.937
"3095571510","5621",bus_stop,General Astilleros - Hípica,35.274,-2.937
"3095579520","5621",bus_stop,Avda. de Europa - Hípica,35.274,-2.937
"3095645529","5621",bus_stop,Avda. de Europa - C. Gamez Moron,35.275,-2.937
"3095709125","5621",bus_stop,Gral. Marina 1,35.293,-2.941
"3095713134",,,,35.293,-2.944
"3095744685","5621",bus_stop,C. P. Eduardo Morillas,35.287,-2.952
"3095753551","5621",bus_stop,Hospital Comarcal,35.286,-2.950
"3095753599","5621",bus_stop,Res. Estudiantes - Estadio A. C.,35.286,-2.948
"3095766396","5621",bus_stop,Estadio Álvarez Claro,35.284,-2.949
"3095776369","5621",bus_stop,Base Militar Alfonso XIII,35.285,-2.953
"3095781275","5621",bus_stop,Alfonso XIII - B° García Valiño,35.283,-2.952
"3095782039","5621",bus_stop,Alfonso XIII - B° García Valiño,35.283,-2.952
"3095872965","5621",bus_stop,,35.282,-2.950
"3095874879","5621",bus_stop,Alfonso XIII - Mercado Mayoristas,35.282,-2.949
"3095992571","5621",bus_stop,C/ Aragón con C/ Jiménez Iglesias,35.277,-2.942
"3096011795","5621",bus_stop,C/ Luis de Ostáriz,35.278,-2.942
"3096033165","5621",bus_stop,Cuartel de Ingenieros,35.28,-2.944
"3096040403","5621",bus_stop,C/ Gaspar Arenas,35.282,-2.945
"3096046868","5621",bus_stop,,35.282,-2.950
"3096400415","5621",bus_stop,Alfonso XIII,35.287,-2.954
"3096402785","5621",bus_stop,C. P. Anselmo Pardo,35.285,-2.953
"3096407646","5621",bus_stop,Hospital Comarcal,35.286,-2.949
"3096411490","5621",bus_stop,C. P. Eduardo Morillas,35.287,-2.953
"3096411491","5621",bus_stop,Inst. Enrique Nieto,35.287,-2.951
"3096411747","5621",bus_stop,C. de Salud Alfonso XIII,35.288,-2.954
"3096411772","5621",bus_stop,Universidad,35.29,-2.953
"3096773318","5621",bus_stop,C/ Padre Lerchundi - Cementerio,35.299,-2.941
"3096773424","5621",bus_stop,C/ Padre Lerchundi - Cementerio,35.299,-2.941
"3098647288","5621",bus_stop,Gare Routière de Nador محطة حافلة الناظور,35.175,-2.920
"3098647292","5641",taxi,Nador الناظور,35.175,-2.921
"3098759895","5621",bus_stop,Beni Nsar Port,35.265,-2.933
"3098760418","5641",taxi,Beni Ensar Port,35.265,-2.934
"3101196874","5621",bus_stop,"Buses to Asni, Imlil, Ourika",31.622,-7.992
"3101890500","5621",bus_stop,,35.1,-2.283
"3101899286","5621",bus_stop,,35.097,-2.278
"3101899306","5621",bus_stop,,35.099,-2.283
"3101899312","5621",bus_stop,,35.098,-2.278
"3104119901","5601",railway_station,Oujda وجدة,34.681,-1.924
"3107158164","5601",railway_station,Naima النعيمة,34.601,-2.219
"3107794427","5621",bus_stop,,34.712,-1.888
"3109095124","5621",bus_stop,Place de la Gare,34.681,-1.923
"3120980461","5622",bus_station,Tendrara تندرارة,33.05,-2.003
"3123646769","5601",railway_station,PK. 0,32.66,-1.953
"3124638515","5641",taxi,Station Taxi,33.891,-5.574
"3124728901","5655",helipad,,28.713,-8.674
"3126222156","5641",taxi,,33.891,-5.574
"3126222157","5641",taxi,,33.892,-5.574
"3127139113","5641",taxi,,34.472,-1.766
"3127666016","5641",taxi,,33.691,-5.374
"3128218296","5601",railway_station,Guenfouda كنفوذة,34.484,-2.044
"3131067987","5621",bus_stop,,34.617,-3.413
"3135286015","5641",taxi,Station Grand Taxi Ouislane,33.898,-5.540
"3135887116","5621",bus_stop,Gare routière de Targuist,34.936,-4.315
"3139891552","5651",airport,Oum Dreyga Airfield مهبط أم ادريكة,24.093,-13.312
"3139891606","5655",helipad,مدرج مروحيات الأمم المتحدة,24.109,-13.327
"3140744037","5601",railway_station,,34.352,-3.043
"3150442158","5621",bus_stop,Abdelkrim Khetabi,33.925,-6.908
"3150442159","5621",bus_stop,Annakhil,33.954,-6.865
"3150442160","5621",bus_stop,Annakhil,33.96,-6.874
"3150442161","5621",bus_stop,Aswak Essalam,33.949,-6.870
"3150442162","5621",bus_stop,Atlas,33.997,-6.847
"3150442163","5621",bus_stop,Avenue Foarate,33.929,-6.892
"3150442164","5621",bus_stop,Bab El Had,34.022,-6.841
"3150442165","5621",bus_stop,Bank Al Maghreb,33.961,-6.873
"3150442166","5621",bus_stop,Cité universitaire Agdal,34.002,-6.843
"3150442167","5621",bus_stop,Douar Bab Saad,33.891,-6.921
"3150442168","5621",bus_stop,Douar Oqba,33.881,-6.922
"3150442169","5621",bus_stop,Douar Rbiaa,33.885,-6.922
"3150442170","5621",bus_stop,Firdaous,33.927,-6.897
"3150442171","5621",bus_stop,Gare Rabat Ville,34.015,-6.839
"3150442172","5621",bus_stop,Guich Lewdaya,33.936,-6.884
"3150442173","5621",bus_stop,Hay Nehda,33.927,-6.906
"3150442174","5621",bus_stop,Hay Razali,33.916,-6.912
"3150442175","5621",bus_stop,Hopital Militaire,33.966,-6.870
"3150442176","5621",bus_stop,Hopital des Spécialités,33.982,-6.856
"3150442177","5621",bus_stop,Ibn Khaldoun,34.011,-6.841
"3150442178","5621",bus_stop,Ibn Sina,33.989,-6.851
"3150442179","5621",bus_stop,Jamaat Mers El Khir,33.873,-6.920
"3150442180","5621",bus_stop,Jbel Tazekka,33.996,-6.850
"3150442181","5621",bus_stop,Kiyadat Mers El Khir,33.867,-6.925
"3150442182","5621",bus_stop,Krouch,33.902,-6.921
"3150442183","5621",bus_stop,Masjib Al Houda,33.909,-6.918
"3150442184","5621",bus_stop,Massira 1,33.929,-6.902
"3150442186","5621",bus_stop,Mosquée Redouane,33.92,-6.910
"3150442187",,bus_stop,Oued Dahab,33.911,-6.916
,,,,33.958,-6.870
"3150442189","5621",bus_stop,Settat,33.906,-6.921
"3150442190","5621",bus_stop,Souissi,33.985,-6.854
"3150442191","5621",bus_stop,Souk Sebt,33.865,-6.927
"3150442192","5621",bus_stop,,33.863,-6.933
"3150442193","5621",bus_stop,,33.863,-6.929
"3150442194","5621",bus_stop,,33.914,-6.914
"3150442195","5621",bus_stop,,33.923,-6.909
"3150442196","5621",bus_stop,,33.951,-6.867
"3150442198","5621",bus_stop,,33.964,-6.872
"3150442199","5621",bus_stop,,33.975,-6.863
"3150442200","5621",bus_stop,,34.018,-6.839
"3151235326","5621",bus_stop,Arfoud,31.433,-4.230
"3151563691","5621",bus_stop,Moulay Ali Chérif - Gare routière,31.28,-4.273
"3152086940","5661",ferry_terminal,Sète - Quai D,,
"3153233257","5661",ferry_terminal,Tanger Ville,35.791,-5.803
"3153234864","5661",ferry_terminal,Tanger Ville,35.789,-5.803
"3153234872","5661",ferry_terminal,Tanger Ville,35.791,-5.800
"3153790689","5621",bus_stop,Taza - Gare routière,34.232,-4.006
"3153945154","5641",taxi,Oued Amlil,34.191,-4.272
"3153948263","5621",bus_stop,Oued Amlil,34.191,-4.273
"3154623889","5601",railway_station,,34.1,-4.706
"3156353813","5601",railway_station,,33.107,-3.937
"3162331143","5621",bus_stop,Jaouharat Tit Mellil,33.548,-7.458
,,,,30.641,-8.475
"3166312668","5641",taxi,,29.38,-10.171
"3170850778","5621",bus_stop,Lycee Badr,32.871,-6.895
"3202844027","5622",bus_station,Taxi Touissit,34.479,-1.764
"3207182944","5621",bus_stop,,31.648,-8.049
,,,,32.644,-5.915
"3217962880","5641",taxi,Zarhounia,33.901,-5.579
,,,,27.16,-13.220
"3239980486","5621",bus_stop,,34.678,-1.912
"3241848585","5621",bus_stop,,34.701,-1.919
"3246263959","5621",bus_stop,,34.657,-1.939
"3250227063","5621",bus_stop,,34.715,-1.885
"3260812335","5621",bus_stop,,34.671,-1.906
"3276658344","5641",taxi,Taxi,31.631,-8.017
"3284828969","5621",bus_stop,Café Kyoto,33.539,-7.600
"3284898224","5621",bus_stop,Clinique CNSS Inara,33.541,-7.597
"3330925471","5621",bus_stop,Bouskoura,33.431,-7.640
"3338528453","5641",taxi,,31.902,-7.942
"3350132577","5641",taxi,,30.397,-9.596
"3357445371","5621",bus_stop,Aéroport Marrakech-Ménara ⴰⵣⴰⴳⵯⵣ ⵏ ⵎⵕⵕⴰⴽⵛ ⵎⵏⴰⵕⴰ مطار مر,31.601,-8.026
"3357445372","5621",bus_stop,Mellah,31.621,-7.984
"3357445373","5621",bus_stop,Gare Routière - Bab Doukkala,31.635,-8.000
"3383986768","5641",taxi,,33.89,-5.578
"3383987728","5641",taxi,,33.883,-5.570
"3385810129","5641",taxi,,33.886,-5.569
"3389732682","5641",taxi,,31.601,-8.026
"3404184340","5621",bus_stop,,29.361,-9.622
"3424903239","5621",bus_stop,Espace Sportif Yasmina,33.539,-7.578
"3442699400","5661",ferry_terminal,,35.877,-5.519
"3484336100","5603",tram_stop,Abdellah Ben Cherif,33.566,-7.660
"3484336101","5603",tram_stop,Abdellah Ben Cherif,33.566,-7.660
"3484336121","5603",tram_stop,Anfa Clubs,33.561,-7.653
"3484336128","5603",tram_stop,Place Financière,33.562,-7.661
"3484336159","5603",tram_stop,Anfa Park,33.56,-7.657
,,,,33.56,-7.658
"3484336168","5603",tram_stop,Anfa Clubs,33.561,-7.653
"3484336170","5603",tram_stop,Place Financière,33.562,-7.661
"3515792536","5601",railway_station,Gare Dar Geuddari,34.43,-6.103
"3515792548","5601",railway_station,Gare Lalla Yettou,34.343,-6.203
"3515823189","5601",railway_station,Gare Oulad Khitib,34.475,-6.012
"3519820897","5621",bus_stop,Résidence El Hadika,33.603,-7.529
,"5601",railway_station,,32.469,-7.912
"3523721044","5601",railway_station,نزالة العظم,32.095,-7.954
"3525295871","5621",bus_stop,Hmara,33.576,-7.549
"3528650437","5621",bus_stop,Groupe 3 Hay Moulay Rachid,33.565,-7.543
"3534417188","5601",railway_station,Gare de Youssoufia,32.247,-8.535
"3552376725","5621",bus_stop,Derb Milan,33.571,-7.581
,"5641",taxi,,34.023,-6.831
"3586356313","5621",bus_stop,,34.023,-6.836
,"5641",taxi,,34.002,-6.855
"3586376541","5621",bus_stop,Gare d'Agdal محطة اكدال,34.002,-6.855
"3586376542",,bus_stop,Gare d'Agdal محطة اكدال,34.002,-6.855
"3586378582","5621",bus_stop,,34.008,-6.852
"3586378583","5621",bus_stop,,34.008,-6.852
"3586387005","5621",bus_stop,,34.009,-6.853
"3586387006","5621",,,34.009,-6.853
,"5621",bus_stop,Gare de Salé-Tabriquet محطة سلا تابريكت,34.052,-6.804
"3586496250",,,,34.035,-6.813
,"5621",bus_stop,Hay Rahma حي الرحمة,34.058,-6.798
,,,,34.052,-6.804
"3586496253","5621",bus_stop,Hay Rahma حي الرحمة,34.057,-6.796
"3586510199","5621",bus_stop,Dar El Hamra دار الحمراء,34.058,-6.788
"3586510200","5621",bus_stop,Dar El Hamra دار الحمراء,34.058,-6.788
"3586516918","5621",bus_stop,Super Hay Rahma سوق ممتاز حي الرحمة,34.061,-6.783
"3586516919","5641",taxi,,34.062,-6.782
"3586521111","5621",bus_stop,Sidi Eddaoui سيدي الضاوي,34.07,-6.775
"3586521112","5621",bus_stop,,34.067,-6.779
"3586618969","5621",bus_stop,,34.077,-6.767
"3593108778","5621",bus_stop,Abou Marouane Essaadi أبو مروان السعدي,33.994,-6.855
"3593108779","5621",bus_stop,Abou Marouane Essaadi أبو مروان السعدي,33.994,-6.855
"3593225295","5621",bus_stop,,33.99,-6.852
"3593249181","5621",bus_stop,,33.994,-6.851
"3593340051","5621",bus_stop,,34.003,-6.852
"3593340052","5621",bus_stop,,34.005,-6.852
"3613455098","5661",ferry_terminal,,35.891,-5.504
"3623191482","5621",bus_stop,,34.68,-1.907
"3623193716","5621",bus_stop,,34.68,-1.907
"3623200691","5621",bus_stop,,34.679,-1.901
"3623884541","5661",ferry_terminal,Puerto Comercial de Almería,,
"3654616702","5621",bus_stop,Douar Krouta,33.435,-7.664
"3659254025","5621",bus_stop,,35.788,-5.824
"3665401170","5641",taxi,"Grands Taxis [Destination Agadir, Ait Melloul, Inezgane]",30.218,-9.370
"3665401733","5641",taxi,"Grands Taxis [Destination Ait Amira, Belfaa, Ait Mimoun]",30.212,-9.371
"3665404925","5641",taxi,Petits Taxis Biougra,30.218,-9.369
"3674168625","5621",bus_stop,Hay Karima حي كريمة,34.054,-6.794
"3674168626","5621",bus_stop,Hay Karima حي كريمة,34.054,-6.793
"3674171945","5621",bus_stop,Ministère de l'Energie et des Mines وزارة الطاقة والمعادن,33.995,-6.858
"3677875835","5641",taxi,,33.897,-5.532
"3685416400","5622",bus_station,Gare CTM Meknès,33.898,-5.537
"3685438103","5621",bus_stop,Mosquée Iran,33.898,-5.536
"3696236724","5621",bus_stop,Rue Melilia زنقة مليلية,34.022,-6.831
"3696236925","5621",bus_stop,,34.024,-6.827
"3696238694","5621",bus_stop,Arrazi الرازي,34.036,-6.813
"3696241011","5621",bus_stop,Tiliouine تيليوين,34.035,-6.807
"3696242866","5621",bus_stop,,34.067,-6.779
"3696242867","5621",bus_stop,Super Hay Rahma سوق ممتاز حي الرحمة,34.062,-6.783
"3696242868","5621",bus_stop,Sidi Eddaoui سيدي الضاوي,34.07,-6.775
"3704534516","5621",bus_stop,,32.26,-4.506
"3715436035","5621",bus_stop,Résidences Alassil,33.593,-7.562
"3736703871","5641",taxi,,33.897,-5.574
"3741138041","5621",bus_stop,7 .1,32.257,-9.252
"3741138042","5621",bus_stop,,32.256,-9.251
"3741138043","5621",bus_stop,7 .1,32.254,-9.252
"3741138044","5621",bus_stop,"7",32.253,-9.250
"3741138045","5621",bus_stop,"7",32.253,-9.248
,"5621",bus_stop,,32.25,-9.256
"3741138047","5621",bus_stop,"1",32.248,-9.253
,,,"1",32.246,-9.254
"3741138050","5621",bus_stop,7 .1,32.26,-9.250
"3741138051","5621",bus_stop,7 .1,32.262,-9.248
,,,7 .1,32.265,-9.247
,,,7 . 1 . 9,32.267,-9.247
,"5621",bus_stop,7 . 1 . 9,32.271,-9.248
"3741138055","5621",bus_stop,7 . 1 . 9,32.272,-9.247
"3741138056","5621",bus_stop,7 . 1 . 9 . 8 . 12 . 16 . 17 . 18 . 20,32.275,-9.246
"3741138057","5621",bus_stop,1 . 7 . 9 . 8 . 12 . 16 . 17 . 18 . 20,32.278,-9.243
"3741138058","5621",bus_stop,7 . 1 . 9 . 12 . 17 . 18,32.28,-9.239
"3741138059","5621",bus_stop,1 . 7 . 9 . 12 . 16 . 17 . 18,32.281,-9.236
"3741138060","5621",bus_stop,1 . 7 . 9,32.283,-9.231
"3741138061","5621",bus_stop,1 . 7 . 9,32.286,-9.229
"3741138062","5621",bus_stop,1 . 2 . 7 . 8 . 9 . 12 . 14 . 17 . 18 . 20,32.287,-9.232
"3741138063","5621",bus_stop,1 . 2 . 7 . 8 . 9 . 12 . 14 . 17 . 18 . 20,32.289,-9.236
"3741138064","5621",bus_stop,1 . 2 . 7 . 9,32.29,-9.239
"3741138065","5621",bus_stop,1 . 2 . 7 . 9,32.296,-9.236
"3741138066","5621",bus_stop,1 . 2 . 4 . 6 . 7 . 9,32.296,-9.242
"3741153729","5621",bus_stop,1 . 2 . 4 . 6 . 7 . 9,32.295,-9.236
"3741153730","5621",bus_stop,1 . 2 . 4 . 6 . 7 . 8 . 9 . 14 . 15 . 16 . 20,32.291,-9.241
"3741153732","5621",bus_stop,1 . 2 . 7 . 8 . 9 . 12 . 14 . 17 . 18 . 20,32.289,-9.236
"3741153733","5621",bus_stop,1 . 2 . 7 . 8 . 9 . 12 . 14 . 17 . 18 . 20,32.286,-9.231
"3741153734","5621",bus_stop,1 . 7 . 9,32.286,-9.230
"3741153735","5621",bus_stop,1 . 7 . 9,32.283,-9.232
"3741153736","5621",bus_stop,1 . 7 . 9 . 12 . 16 . 17 . 18,32.281,-9.236
"3741153738","5621",bus_stop,1 . 7 . 9 . 12 . 16 . 17 . 18,32.28,-9.240
"3741153739","5621",bus_stop,1 . 7 . 9 . 12 . 16 . 17 . 18,32.279,-9.243
"3741153740","5621",bus_stop,1 . 7 . 8 . 9 . 12 . 17 . 18 . 20,32.274,-9.246
"3741153741","5621",bus_stop,"16",32.275,-9.247
"3741153742","5621",bus_stop,1 . 7 . 9,32.272,-9.247
"3741153743","5621",bus_stop,1 . 7 . 9,32.27,-9.249
"3741153744","5621",bus_stop,1 . 7,32.267,-9.247
"3741153745","5621",bus_stop,"9",32.267,-9.246
"3741153746","5621",bus_stop,1 . 7,32.265,-9.247
"3741153747","5621",bus_stop,1 . 7,32.262,-9.248
"3741153748","5621",bus_stop,1 . 7,32.261,-9.250
"3741153749","5621",bus_stop,1 . 7,32.258,-9.252
"3741153750","5621",bus_stop,"1",32.254,-9.253
"3741153751","5621",bus_stop,"7",32.255,-9.252
"3741153752","5621",bus_stop,"1",32.248,-9.254
"3741153753","5621",bus_stop,"1",32.247,-9.256
"3741163660","5621",bus_stop,"16",32.051,-9.339
"3741163661","5621",bus_stop,"16",32.045,-9.337
"3741163662","5621",bus_stop,"16",32.04,-9.340
"3741163663","5621",,"16",32.032,-9.338
"3741164545","5621",bus_stop,"16",32.271,-9.251
,"5621",bus_stop,"16",32.264,-9.254
"3741379889","5621",bus_stop,"9",32.266,-9.240
"3741379890","5621",,"9",32.27,-9.236
"3741438166","5621",bus_stop,2 . 14,32.286,-9.228
,"5621",,2 . 14,32.284,-9.226
"3741438168","5621",bus_stop,"2",32.287,-9.220
"3741438169","5621",bus_stop,"2",32.292,-9.217
"3741438170","5621",bus_stop,"2",32.291,-9.212
"3741438171","5621",bus_stop,"2",32.287,-9.204
"3741438176","5621",bus_stop,"17",32.306,-9.217
"3769564809","5621",bus_stop,Ouad Dahab,33.541,-7.573
"3769570872","5621",bus_stop,Mosquée Ain Choc,33.554,-7.600
"3773518954","5641",taxi,Taxis,35.166,-5.267
"3784849374","5641",taxi,station de petit taxi château,34.048,-6.784
"3788923876","5641",taxi,Taxis,35.169,-5.261
"3794749862","5601",railway_station,Gare de Safi,32.286,-9.244
"3808771018","5641",taxi,Taxis,35.168,-5.275
"3820887998","5655",helipad,Helipuerto de Ceuta,35.893,-5.306
"3824142301","5621",bus_stop,Fronteriza (Paso de Benzú),35.913,-5.381
"3824142302","5621",bus_stop,Fronteriza (Paso de Benzú),35.913,-5.380
,"5621",bus_stop,,35.911,-5.380
"3827124148","5621",bus_stop,Café Latino,33.538,-7.586
,"5621",bus_stop,RTM Âin Choc,33.539,-7.583
"3827124151","5621",bus_stop,Café Achkid,33.541,-7.580
"3827124153","5621",bus_stop,Jamila,33.542,-7.580
"3827124155","5621",bus_stop,Café Souria,33.546,-7.564
"3827124156","5621",bus_stop,Café Souria,33.546,-7.564
"3827125857","5621",bus_stop,Stade Tissima,33.544,-7.562
"3827125884","5621",bus_stop,Lydec Dar Touzani,33.549,-7.587
"3827125887","5621",bus_stop,Cinéma Sahra,33.551,-7.599
"3827125889","5621",bus_stop,Marché Ain Choc,33.547,-7.597
"3827126009","5621",bus_stop,Café 2000,33.542,-7.594
"3827126010","5621",bus_stop,Belrhazidecor,33.539,-7.593
"3827126012","5621",bus_stop,Koréa Sebata,33.552,-7.570
"3827126014","5621",bus_stop,4ème Arrondissement,33.557,-7.572
"3827126018","5621",bus_stop,Lycée Alidrissi,33.557,-7.585
"3827126019","5621",bus_stop,Carr. Benmsick,33.558,-7.579
"3827126022","5621",bus_stop,Zone Urbaine 16 Ben Msick,33.555,-7.588
"3827126023","5621",,,33.563,-7.577
"3827702078","5601",,Berrechid برشيد,33.26,-7.592
,"5601",,Sidi el Aïdi سيدي العايدي,33.127,-7.626
"3827704696","5601",railway_station,Oued Zem وادي زم,32.865,-6.563
"3836100622","5641",taxi,"Grands Taxis Bab Taza, Ouezzane",35.165,-5.263
"3843048973","5621",bus_stop,Tacharouk,33.57,-7.522
"3843048974","5621",bus_stop,Tacharouk,33.57,-7.523
"3843048975","5621",bus_stop,Faculté de Ben M'Sick,33.566,-7.543
"3843048976","5621",bus_stop,Faculté Benmsick,33.566,-7.543
"3843048984","5621",bus_stop,Hay Chifa,33.572,-7.585
"3843048985","5621",bus_stop,Hay Chifa,33.572,-7.585
"3843048995","5621",bus_stop,Pharmacie Andalouss,33.554,-7.604
"3843048998","5621",bus_stop,Bin Lmdoun,33.557,-7.601
"3843049008","5621",bus_stop,Hay Lmasjid,33.562,-7.604
"3843049012","5621",bus_stop,Clinique Dar Salam,33.562,-7.619
"3843049013","5621",bus_stop,Clinique Dar Salam,33.562,-7.619
"3843049014","5621",bus_stop,Villa Des Lilas,33.559,-7.630
"3843049020","5621",bus_stop,Cité de l'Air,33.57,-7.665
"3843049024","5621",bus_stop,Villa Ain Diab فيلا عين دياب,33.588,-7.683
"3843049026","5621",bus_stop,Hôtel Suisse,33.592,-7.677
"3843049027","5621",bus_stop,Peugeot Rapide,33.578,-7.672
,"5621",bus_stop,,33.585,-7.639
"3843049033","5641",taxi,Opéra,33.595,-7.622
,"5621",bus_stop,Houphouët Boigny,33.599,-7.615
"3843049043","5621",bus_stop,Place Maréchal,33.595,-7.620
"3843049046","5621",bus_stop,Colis Postaux,33.597,-7.609
"3843049050","5621",bus_stop,Souk Salam,33.584,-7.552
"3843049055","5621",bus_stop,Lalla Assma 1,33.578,-7.542
"3843069858","5621",bus_stop,Pharmacie Ibn Zohr,33.558,-7.570
"3843069860","5621",bus_stop,Av de Dakhla,33.545,-7.574
"3843069866","5621",bus_stop,Belrhazidecor,33.539,-7.593
"3843069867","5621",bus_stop,Café Mesk Lil,33.545,-7.595
"3843069868","5621",bus_stop,Café Mesk Lil,33.544,-7.595
"3843069879","5621",bus_stop,Renault Moulay Youssef,33.6,-7.632
"3845738430","5621",bus_stop,Arrondissement Dcheira,30.37,-9.539
"3845746512","5621",bus_stop,Arrondissement Dcheira,30.37,-9.538
"3845746513","5621",bus_stop,Hopital Dcheira,30.371,-9.532
"3845756586","5621",bus_stop,Hopital Dcheira,30.372,-9.532
,"5621",bus_stop,Jamal Dourra,30.406,-9.552
"3850272247","5621",bus_stop,,30.406,-9.552
"3855192063","5641",taxi,,33.586,-7.557
"3856488983","5621",bus_stop,Hopital Dcheira,30.372,-9.533
"3859122562","5641",taxi,,30.372,-9.531
"3861213735","5621",bus_stop,32-33,30.412,-9.589
"3866905287","5621",bus_stop,Onep,30.41,-9.584
"3873868465","5621",bus_stop,Pza. de España,35.292,-2.938
"3897335497","5622",bus_station,gare routière de Larache,35.192,-6.153
"3899360876","5641",taxi,Station Taxi,33.689,-7.386
"3908418749","5641",taxi,Benzú (Frontera),35.916,-5.377
"3914654428","5621",bus_stop,Alcalde Sánchez (2 de Mayo),35.888,-5.315
"3914654431","5621",bus_stop,Marina Española (Constitución),35.888,-5.313
"3915395058","5621",bus_stop,Recinto Sur,35.886,-5.305
"3915395520","5621",bus_stop,,35.891,-5.298
"3915396023","5621",bus_stop,,35.892,-5.298
"3915396024","5621",bus_stop,,35.892,-5.299
"3915396025","5621",,Tanatorio,35.896,-5.299
"3915396027","5621",bus_stop,,35.897,-5.298
,"5641",taxi,,31.563,-7.666
"3916540873","5621",bus_stop,,35.885,-5.339
,"5622",bus_station,gare routière de Rabat (Kamra),33.991,-6.867
"3929849557","5621",bus_stop,Carré d'Eden,31.635,-8.012
"3929849558","5621",bus_stop,Gare ONCF - Marrakech,31.63,-8.016
"3929849559","5621",bus_stop,Gueliz - Place du 16 Novembre - La Grande Poste,31.633,-8.009
"3929850341","5621",bus_stop,Gueliz - Cinema Le Colisee,31.636,-8.015
"3930188828","5621",bus_stop,Carré d'Eden,31.635,-8.012
"3930772557","5621",bus_stop,Mosque Mhamid 9,31.573,-8.056
"3933841165","5641",taxi,taxi vers mohammedia,33.686,-7.343
"3934764365","5621",bus_stop,Pharmacie Lwizia,33.689,-7.355
"3934764417","5621",bus_stop,Kiadat Lwizia,33.688,-7.350
"3935576298","5621",bus_stop,Place D'Armes - Abdelkarim El Khattabi - Acima,31.637,-8.017
"3935576299","5621",bus_stop,Place D'Armes - Abdelkarim El Khattabi - Acima,31.637,-8.018
"3936527086","5641",taxi,taxi,33.688,-7.377
"3936527157","5641",taxi,taxi,33.69,-7.389
"3937715482","5621",bus_stop,Centre Ville,35.197,-6.152
"3938726018","5621",bus_stop,Bab Ghemat,31.624,-7.974
"3938726019","5621",bus_stop,Massira 2,31.634,-8.068
"3942697012","5621",bus_stop,Marjane - Route de Casablanca,31.668,-8.012
"3942697013","5621",bus_stop,Marjane - Route de Casablanca,31.668,-8.012
"3942697015","5621",bus_stop,Massira 3,31.648,-8.065
"3942697352","5621",bus_stop,Douar Alkoudia,31.651,-8.020
"3942697353","5621",bus_stop,Douar Alkoudia,31.651,-8.020
"3946728162","5621",bus_stop,Colis Postaux,33.597,-7.609
"3949342765","5655",helipad,,33.837,-6.750
"3949343074","5655",helipad,,33.837,-6.750
"3949358172","5655",helipad,,33.886,-6.839
"3949358181","5655",helipad,,33.886,-6.839
"3950605193","5622",bus_station,,29.378,-10.175
,"5621",,,33.665,-7.439
,"5621",bus_stop,Bni Yakhlef,33.661,-7.342
,"5621",,Tassila Istat,30.385,-9.522
"3962390847","5641",taxi,Grands Taxis,35.081,-2.215
"3964517840","5621",bus_stop,Tassila Entree,30.391,-9.530
"3964517841","5621",bus_stop,Tassila Entree,30.39,-9.529
"3964517842","5621",bus_stop,,30.39,-9.528
"3964517843","5621",bus_stop,,30.39,-9.528
"3964517844","5621",bus_stop,,30.388,-9.526
"3964517845","5621",bus_stop,,30.387,-9.525
"3964517846","5621",bus_stop,Tassila Istat,30.386,-9.523
"3964517847","5621",bus_stop,Arcol,30.384,-9.521
"3964517848","5621",bus_stop,Sidi Fares,30.382,-9.522
"3964517849","5621",bus_stop,Sidi Fares,30.382,-9.522
"3967638069","5621",bus_stop,Av. Menara,31.614,-8.016
"3967638070","5621",bus_stop,Av. Menara,31.614,-8.017
"3967638071","5621",bus_stop,Av. du President Kennedy,31.619,-8.005
"3967638072","5621",bus_stop,Bab Jedid,31.622,-7.998
"3967638073","5621",bus_stop,Bab Nkob - Hôtel de Ville,31.628,-8.001
"3967638074","5621",bus_stop,Boulevard Mohammed VI شارع محمد السادس,31.622,-8.011
"3967638075","5621",bus_stop,Boulevard Mohammed Zerktouni,31.635,-8.017
"3967638076","5621",bus_stop,Es Saadi,31.62,-8.002
"3967638077","5621",bus_stop,Jardin Sidi Mimoun,31.622,-7.993
"3967638078","5621",bus_stop,Place Abdelmoumen - Mohammmed Zerktouni,31.636,-8.015
"3967638080","5621",bus_stop,Route de Targa - Place D'Armes,31.638,-8.018
"3967638081","5621",bus_stop,Théâtre Royal,31.629,-8.016
"3976720779","5621",bus_stop,Dar Lmoamin,33.59,-7.603
"3988914853","5641",taxi,,34.016,-2.027
"3994149268","5621",bus_stop,Ben Sergaou Pepn,30.383,-9.569
"4000749319","5621",bus_stop,Acima Ibn Tachfine,33.584,-7.572
"4026734016","5641",taxi,,35.571,-5.364
"4027322435","5641",taxi,,35.78,-5.808
"4033980474","5621",bus_stop,Palais de Justice,32.888,-6.916
"4033980475","5621",bus_stop,Pharmacie Al Massira,32.888,-6.897
"4033980476","5621",bus_stop,Marjane,32.886,-6.908
"4033980477","5621",bus_stop,Arrondissement Police,32.89,-6.928
"4033980479","5621",bus_stop,Espace Arafa,32.893,-6.939
"4033980480","5621",bus_stop,Ecole Morabitine,32.889,-6.890
"4033980484","5621",bus_stop,Espace Arafa,32.893,-6.939
"4033980485","5621",bus_stop,Ecole Al Amal,32.892,-6.935
"4033980486","5621",bus_stop,Bvd Mohamed 6,32.89,-6.889
"4033980487",,bus_stop,,32.887,-6.913
"4033980488","5621",bus_stop,Pharmacie Al Massira,32.888,-6.897
,"5621",,Tresorie Generale,32.887,-6.913
"4033982490","5621",bus_stop,Marjane,32.886,-6.908
"4033982491","5621",bus_stop,Incia,32.888,-6.919
"4033982492","5621",bus_stop,Ecole Al Amal,32.892,-6.935
"4033982493","5621",bus_stop,Ecole Morabitine,32.889,-6.890
"4033982494","5621",bus_stop,Patisserie La Shope,32.886,-6.904
"4033982495","5621",bus_stop,Arrondissement Police,32.89,-6.928
"4033982496","5621",bus_stop,Al Massira,32.887,-6.899
"4033982497","5621",bus_stop,Ensemble Artisanal,32.887,-6.911
"4033982498","5621",bus_stop,Arrondissement Police,32.889,-6.893
"4033982499","5621",bus_stop,Bvd Mohamed 6,32.89,-6.889
"4033982500","5621",bus_stop,Patisserie Idrissi,32.889,-6.924
"4033982501","5621",bus_stop,Al Massira,32.887,-6.900
"4033982502","5621",bus_stop,Ensemble Artisanal,32.887,-6.911
"4033982503","5621",bus_stop,Al Fath,32.891,-6.931
"4033982505","5621",bus_stop,Patisserie Idrissi,32.889,-6.924
"4033982509","5621",bus_stop,Patisserie La Shope,32.886,-6.904
"4033982512","5621",bus_stop,Arrondissement Police,32.889,-6.893
"4033982513","5621",bus_stop,Al Fath,32.891,-6.932
"4033991269","5621",bus_stop,La Grande Poste,32.882,-6.911
"4033991270","5621",bus_stop,Institute de promotion Khouribga,32.871,-6.906
"4033991273","5621",bus_stop,Grande Piscine OCP,32.875,-6.906
"4033991274","5621",bus_stop,Labyoute,32.874,-6.900
"4033991276","5621",bus_stop,Parc de La Fontaine OCP,32.878,-6.911
"4033991278","5621",bus_stop,Mosquée Al Mohammadi,32.874,-6.901
"4033991280","5621",bus_stop,Alfred Beauge,32.877,-6.908
"4033991282","5621",bus_stop,Parc de Milan,32.88,-6.905
"4033991283","5621",bus_stop,Groupe scolaire 20 Aout,32.873,-6.898
"4033991284","5621",bus_stop,Quartier Benjeloune,32.874,-6.892
"4033991285","5621",bus_stop,Parc Hassan 2,32.879,-6.899
"4033998100","5621",bus_stop,La Province,32.897,-6.910
"4033998105","5621",bus_stop,Complexe Culturel,32.887,-6.911
,,,,32.887,-6.911
"4033999047","5621",bus_stop,,32.885,-6.932
"4033999048","5621",bus_stop,Entree Quartier Industriele,32.883,-6.936
"4033999049","5621",bus_stop,,32.885,-6.932
"4038395949","5641",taxi,,30.372,-9.531
"4051503999","5641",taxi,Grands Taxis,30.533,-7.925
"4051504187","5622",bus_station,,30.533,-7.926
"4066473836","5622",bus_station,Al Mina,35.788,-5.353
"4066473836","5621",bus_stop,Al Mina,35.788,-5.353
"4068467372","5622",bus_station,CTM Gare Voyage,29.825,-5.718
"4069744023","5641",taxi,,34.928,-2.331
,"5641",taxi,Grands Taxis,34.922,-2.338
"4104261750","5622",bus_station,,34.925,-2.334
"4104261751","5641",taxi,Grands Taxis,34.924,-2.334
"4107749400","5621",bus_stop,Mosquée Afghanistan,33.573,-7.674
"4122102189","5622",bus_station,,32.537,-1.959
"4133232700","5621",bus_stop,"50",34.016,-5.027
"4134130194","5621",bus_stop,"9",34.06,-4.982
"4134185228","5621",bus_stop,"50",34.019,-5.026
"4147847436","5621",bus_stop,19-29-45-54,34.062,-4.973
"4156548980","5621",bus_stop,CF El Hank,33.604,-7.651
"4195875489","5621",bus_stop,Gare Routière محطة الحافلات,33.575,-7.589
"4202213190","5641",taxi,,34.878,-6.289
"4205738939","5621",bus_stop,Commune Sidi Blyout,33.595,-7.626
"4205974410","5621",bus_stop,Far - Al Manzah,30.431,-9.585
"4205974412","5621",bus_stop,Taddart Istat,30.437,-9.584
"4205974413","5621",bus_stop,Taddart Istat,30.437,-9.584
"4205974414","5621",bus_stop,Hopital Hassan 2,30.438,-9.589
,,,,30.413,-9.588
"4207992945","5621",bus_stop,Rachad 2M,30.411,-9.592
"4207992946","5621",bus_stop,Nantaiz,30.409,-9.589
"4207992947","5621",bus_stop,Nantaiz,30.409,-9.589
"4207996320","5621",bus_stop,Amougay,30.367,-9.533
"4207996321","5621",bus_stop,Amougay,30.367,-9.533
"4207996322","5621",bus_stop,Cafe Lhaj Entree Dcheira,30.363,-9.533
"4207996323","5621",bus_stop,Cafe Lhaj Entree Dcheira,30.363,-9.534
"4208005191","5621",bus_stop,Bir Inzarane Assergal,30.371,-9.536
"4208005192","5621",bus_stop,Bir Inzarane Assergal,30.371,-9.536
"4208016903","5621",bus_stop,Jihadia - Souk Inezgane,30.362,-9.529
"4208073386","5651",airport,مطار تفاريتي مينورسو,26.134,-10.543
"4208136041","5621",bus_stop,Marché Ain Choc,33.547,-7.597
"4209643296","5621",bus_stop,Theatre De Verdure,30.415,-9.598
"4209643297","5621",bus_stop,Theatre De Verdure,30.414,-9.598
"4211146981","5621",bus_stop,Morgue Ain Chok,33.555,-7.593
"4211271899","5621",bus_stop,"21",30.359,-9.529
"4211675999","5621",bus_stop,Hammam El Hajja,33.569,-7.560
"4212308599","5621",bus_stop,Poste Inegane,30.358,-9.533
,"5621",bus_stop,"23",30.359,-9.529
"4213171033","5621",bus_stop,Piscine du Complexe Mohammed V,33.581,-7.646
"4213171046","5621",bus_stop,Kassbat Lamin,33.533,-7.683
"4213548707","5621",bus_stop,Pharmacie Titrite,30.372,-9.523
"4214020105","5621",bus_stop,English-School,33.615,-7.532
"4215515532","5601",railway_station,,33.374,-7.624
"4215582514","5621",bus_stop,Hay Mbarka,33.615,-7.503
"4215685102","5621",bus_stop,Houda Annexe Omrane,30.395,-9.538
"4215685103","5621",bus_stop,Houda Annexe Omrane,30.395,-9.538
"4215685104","5621",bus_stop,Imm Fadesa,30.378,-9.526
"4215685105","5621",bus_stop,Arcol,30.384,-9.520
"4215789622","5621",bus_stop,Wilaya-Jardin Belvedere,30.42,-9.605
"4215789623","5621",bus_stop,Wilaya-Jardin Belvedere,30.42,-9.604
"4215789624","5621",bus_stop,Port De Peche,30.426,-9.619
"4220503316","5621",bus_stop,Watania Assurance,33.551,-7.569
"4225391864","5621",bus_stop,Kodia,33.586,-7.557
"4226642699","5621",bus_stop,Hotel De Ville Dcheira,30.374,-9.530
"4226642700","5621",bus_stop,Hotel De Ville Dcheira,30.374,-9.529
"4227487109","5621",bus_stop,Cinéma Rif,33.597,-7.616
"4229177293","5621",bus_stop,École Le Pont,33.548,-7.628
"4230452127","5621",bus_stop,Bir Inzarane Pergola Dcheira,30.372,-9.548
"4230460566","5621",bus_stop,Bir Inzarane Slaoui,30.372,-9.544
"4243613587","5621",bus_stop,,35.78,-5.824
"4243613592","5621",bus_stop,Café Picasso,35.771,-5.812
"4243613597","5621",bus_stop,Mosquée Badr,35.771,-5.809
"4243613606","5621",bus_stop,Aswak Assalam,35.739,-5.873
"4243613650","5621",bus_stop,Station Afriquia,35.761,-5.841
"4243613693","5621",bus_stop,Hopital Mohammed V,35.778,-5.827
"4244309716","5603",tram_stop,Derb Ghalef درب غلف,33.57,-7.632
"4244309717","5603",tram_stop,Derb Ghalef درب غلف,33.57,-7.632
"4244757512","5621",bus_stop,La Koutoubia,31.626,-7.994
"4244771455","5621",bus_stop,Housna,31.59,-8.054
"4244789023","5621",bus_stop,L.M.I. Noussair,31.607,-7.966
"4244818382","5621",bus_stop,Bab Ghemat,31.623,-7.974
"4244856093","5621",bus_stop,Mosquée Sanaoub,31.67,-8.029
"4244898248","5621",bus_stop,Izdihar,31.675,-8.029
"4245276073","5621",bus_stop,M'Nar,35.817,-5.748
"4245276493","5621",bus_stop,M'Nar Park,35.809,-5.740
"4246756359","5621",bus_stop,Douar Chouhada,31.598,-7.960
"4247071099","5621",bus_stop,Office Des Impots,31.651,-8.061
"4247523791","5621",bus_stop,Gare ONCF - Marrakech,31.63,-8.018
"4247540687","5621",bus_stop,Complex Culturel Hay Hassani,31.633,-8.045
"4248157369","5621",bus_stop,Complex Culturel Hay Hassani,31.633,-8.045
"4248547090","5621",bus_stop,Rouidate,31.644,-8.009
"4248547091","5621",bus_stop,Rouidate,31.644,-8.009
"4248851158","5621",bus_stop,Sidi Mimoun,31.621,-7.993
"4248851159","5621",bus_stop,Sidi Mimoun,31.622,-7.993
"4248928443","5621",bus_stop,Al Fadel,31.677,-8.024
"4250624612","5621",bus_stop,Massira 2,31.634,-8.068
"4250710847","5621",bus_stop,Ibn Toumert,31.628,-8.047
"4250710848","5621",bus_stop,Ibn Toumert,31.629,-8.047
"4250819707","5621",bus_stop,Gare ONCF - Marrakech,31.63,-8.017
"4250844937","5621",bus_stop,Douar Laskar,31.627,-8.039
"4250844938","5621",bus_stop,Douar Laskar,31.628,-8.039
"4250846980","5621",bus_stop,Faculté des Sciences,31.648,-8.013
"4250846981","5621",bus_stop,Faculté des Sciences,31.648,-8.013
"4250854910","5621",bus_stop,Cité Universitaire,31.662,-8.001
"4250854911","5621",bus_stop,Cité Universitaire,31.662,-8.001
"4250864583","5621",bus_stop,Issil,31.658,-8.005
"4250864584","5621",bus_stop,Issil,31.658,-8.005
"4250868978","5621",bus_stop,La Grande Poste,31.632,-8.009
"4250868979","5621",bus_stop,La Grande Poste,31.632,-8.009
"4250868980","5621",bus_stop,Gueliz - Place du 16 Novembre - La Grande Poste,31.633,-8.009
"4250900151","5621",bus_stop,Bab Nkob - Hôtel de Ville,31.628,-8.001
"4251905310","5621",bus_stop,Socoma,31.619,-8.068
"4251996544","5621",bus_stop,ITA,31.623,-8.050
"4251996545","5621",bus_stop,ITA,31.623,-8.050
"4252503716","5621",bus_stop,Azli Sud,31.617,-8.047
"4252878481","5621",bus_stop,Riad Laarous,31.634,-7.991
"4252878482","5621",bus_stop,Riad Laarous,31.634,-7.991
"4252898694","5621",bus_stop,Sup De Co - McDonald's,31.653,-8.018
"4252898695","5621",bus_stop,Sup De Co - McDonald's,31.653,-8.018
"4252913136","5621",bus_stop,Bab Kechich,31.64,-7.983
"4252913137","5621",bus_stop,Bab Kechich,31.639,-7.983
"4252914229","5621",bus_stop,Hôpital Antaki,31.637,-7.985
"4252914230","5621",bus_stop,Hôpital Antaki,31.636,-7.985
"4252918306","5621",bus_stop,Bab Taghzout,31.637,-7.990
"4252918307","5621",bus_stop,Bab Taghzout,31.637,-7.990
"4252947050","5621",bus_stop,Lycée Ben Youssef,31.677,-7.998
"4252963535","5621",bus_stop,Daoudiate,31.659,-7.997
"4252963536","5621",bus_stop,Daoudiate,31.659,-7.997
"4252978985","5621",bus_stop,Sub Direction Des Impots,31.651,-7.996
"4252978986","5621",bus_stop,9 - Sub Direction Des Impots,31.65,-7.996
"4252989365","5621",bus_stop,Hôpital Militaire Avicenne,31.634,-8.021
"4252989366","5621",bus_stop,Hôpital Militaire Avicenne,31.634,-8.020
"4253008669","5621",bus_stop,Inara,31.639,-8.060
"4253008670","5621",bus_stop,Inara,31.639,-8.060
"4253015023","5621",bus_stop,Sidi M'Bark,31.634,-8.039
"4253015024","5621",bus_stop,Sidi M'Bark,31.634,-8.039
"4253025759","5621",bus_stop,Bab Rob,31.617,-7.991
"4253025760","5621",bus_stop,Bab Rob,31.617,-7.991
"4253032391","5621",bus_stop,Agdal,31.603,-7.972
"4253032392","5621",bus_stop,Agdal,31.603,-7.972
"4253050758","5621",bus_stop,Place Lamsallah,31.614,-7.973
"4253050759","5621",bus_stop,Place Lamsallah,31.614,-7.973
"4253124750","5621",bus_stop,Rond Point Iziki,31.627,-8.059
"4253124751","5621",bus_stop,Rond Point Iziki,31.627,-8.058
"4253136514","5621",bus_stop,Azli,31.621,-8.059
"4253136515","5621",bus_stop,Azli,31.621,-8.059
"4253322881","5621",bus_stop,Avenue M'Hamid,31.597,-8.045
"4253322882","5621",bus_stop,Avenue M'Hamid,31.597,-8.044
"4253896609","5621",bus_stop,Aéroport,31.597,-8.026
"4253909848","5621",bus_stop,Ibn Toumert,31.629,-8.048
"4253909849","5621",bus_stop,Ibn Toumert,31.629,-8.048
"4254086409","5621",bus_stop,École Américaine,31.636,-7.939
"4254192144","5621",bus_stop,Ain Itti,31.645,-7.982
"4254192145","5621",bus_stop,Ain Itti,31.645,-7.982
"4254193824","5621",bus_stop,Wilaya,31.644,-7.992
"4254193825","5621",bus_stop,Wilaya,31.644,-7.992
"4254200543","5621",bus_stop,Dar Tounsi,31.648,-7.953
"4254200544","5621",bus_stop,Dar Tounsi,31.648,-7.954
"4254220145","5621",bus_stop,Douar El Garne,31.641,-7.943
"4254220146","5621",bus_stop,Douar El Garne,31.641,-7.943
"4256622411","5621",bus_stop,Avenue Allal El Fassi,31.646,-8.001
"4256642300","5621",bus_stop,Avenue Allal El Fassi,31.647,-8.001
"4256757498","5621",bus_stop,Matallah,31.601,-8.051
"4256815477","5621",bus_stop,Boulevard Mohammed VI شارع محمد السادس,31.622,-8.010
"4256865009","5621",bus_stop,Office de Haouz,31.631,-8.014
"4256865010","5621",bus_stop,Office de Haouz,31.631,-8.014
"4258502442","5621",bus_stop,Azzouzia,31.685,-8.062
"4258561754","5621",bus_stop,Sidi Ghanem,31.669,-8.042
"4258561755","5621",bus_stop,Sidi Ghanem,31.669,-8.042
"4258600990","5621",bus_stop,Route de Targa - Place D'Armes,31.638,-8.018
"4258612745","5621",bus_stop,Sidi Daou,31.655,-8.053
"4258641136","5621",bus_stop,Hay Zitoune,31.643,-8.037
"4258641137","5621",bus_stop,Hay Zitoune,31.643,-8.037
"4258650185","5621",bus_stop,Chourouf,31.671,-8.059
"4258650186","5621",bus_stop,Chourouf,31.671,-8.058
"4258665029","5621",bus_stop,Sidi Daou,31.655,-8.052
"4260124557","5621",bus_stop,Souk Lakhmis,31.644,-7.987
"4260124558","5621",bus_stop,Souk Lakhmis,31.644,-7.987
"4261773393","5621",bus_stop,Iziki,31.628,-8.058
"4261773394","5621",bus_stop,Iziki,31.628,-8.058
"4261837091","5621",bus_stop,Assif,31.655,-8.011
"4261837092","5621",bus_stop,Assif,31.655,-8.011
"4264530861","5622",bus_station,Bus station Supra Tours,31.52,-5.533
"4268449126","5621",bus_stop,T. Av d'Egypte,34.044,-5.003
"4274169708","5641",taxi,Grands Taxis Garage Allal محطة طاكسي كبير گراج علال,33.579,-7.599
"4292013892","5621",bus_stop,Le serpent,33.813,-4.839
"4294764003","5621",bus_stop,Supratours Merzouga,31.097,-4.010
"4294772311","5621",bus_stop,Supratours Hassi labiad,31.14,-4.025
"4294772697","5621",bus_stop,Supratours Errachidia,31.93,-4.427
"4301700162","5655",helipad,,27.739,-9.411
"4301700168","5655",helipad,,27.739,-9.412
"4301700235","5655",helipad,,27.74,-9.410
"4301700636","5655",helipad,,27.738,-9.411
"4301700774","5655",helipad,,27.739,-9.412
"4305395293","5622",bus_station,Oulad zyan,33.574,-7.587
"4321835491","5621",bus_stop,arret,33.221,-8.491
"4323271705","5621",bus_stop,Bus 16,33.76,-5.486
"4323306706","5621",bus_stop,Bus 18-16,33.76,-5.486
"4332674678","5621",bus_stop,,33.905,-6.919
"4332674679","5621",bus_stop,,33.905,-6.919
"4332674680","5621",bus_stop,,33.911,-6.913
"4332674681","5621",bus_stop,,33.91,-6.913
"4338785049","5621",bus_stop,Infirmier Bouafi,33.551,-7.580
"4339061558","5622",bus_station,Gare Routiere Imzouren,35.157,-3.849
"4352437994","5622",bus_station,CTM Bus station,31.504,-9.757
"4352585193","5621",bus_stop,CTM Bus Stop,32.111,-9.083
"4352882592","5622",bus_station,CTM Bus Station,33.577,-7.636
"4360005391","5603",tram_stop,2 Mars,33.569,-7.613
"4362049189","5641",taxi,Long distance taxi station,31.284,-4.270
"4363428690","5621",bus_stop,,33.96,-6.857
"4394236089","5622",bus_station,,35.191,-6.155
"4402392299","5621",bus_stop,avenue moulay youssef Rue chichawa N9 Tabriquet salé,34.037,-6.805
"4402998139","5641",taxi,Taxi Daba تاكسي دابا,34.705,-1.892
"4409745117","5621",bus_stop,Afriquia MT,33.538,-7.718
"4409745403","5621",bus_stop,Pharmacie Mosquée Rahma,33.535,-7.723
"4433447548","5601",railway_station,,34.011,-5.624
"4446305060","5621",bus_stop,Pharmacie Oulad Salh,33.382,-7.688
"4460652430","5622",bus_station,CTM,33.98,-6.875
"4460652431","5622",bus_station,,33.99,-6.868
"4467374289","5621",bus_stop,Ouad Dahab,33.541,-7.573
"4491358714","5641",taxi,Station Grand Taxis SAHA,34.264,-6.570
"4496542415","5621",bus_stop,7 13 18,31.659,-8.001
"4496542416","5621",bus_stop,"11",31.659,-8.001
"4496542417","5621",bus_stop,7 13 18,31.659,-8.002
"4508952889","5621",bus_stop,,31.618,-7.989
,,,,34,-6.851
"4510444189",,,,34.001,-6.850
"4510701404","5621",bus_stop,,31.628,-8.015
"4510937994","5621",bus_stop,,31.635,-8.001
"4510937995","5621",bus_stop,,31.597,-8.024
"4511091490","5621",bus_stop,,31.597,-8.024
"4519411889","5621",bus_stop,arrêt bus 08 22 31 32,33.989,-6.852
"4523210528","5621",bus_stop,Espace Chokri,33.512,-7.770
"4523424389","5621",bus_stop,Terminus BUS 900 محطة الباص,33.686,-7.382
"4538638136","5641",taxi,Station Taxi Marrakech,32.997,-7.619
"4538638137","5641",taxi,Station Taxi Casablanca,32.997,-7.619
"4538638138","5641",taxi,Station Taxi Berrechid,32.998,-7.619
"4538644972","5641",taxi,Station Taxi Iben Ahmed,33.004,-7.613
"4539465591","5622",bus_station,,35.145,-2.976
"4540171681","5601",railway_station,Gare de Settat,32.994,-7.623
"4540334892","5621",bus_stop,المكي الناصري,32.867,-6.897
"4553389007","5601",railway_station,Ras El Ma,33.989,-5.107
"4553788153","5621",bus_stop,,32.996,-7.618
"4563784402","5641",taxi,,35.866,-5.345
"4571859889","5621",bus_stop,,31.637,-7.990
"4574679348","5641",taxi,Grande Taxi,32.994,-7.618
"4580110193","5641",taxi,,31.623,-7.990
"4580339909","5621",bus_stop,Moutana Ibn Harita,33.605,-7.510
"4584731726","5621",bus_stop,Centre Santé Tacha,33.573,-7.533
"4585733322","5621",bus_stop,Hay el Wahda - Autoroute,33.538,-7.539
"4591181359","5603",tram_stop,Place Mohammed V,33.59,-7.620
"4591435479","5603",tram_stop,Attacharouk,33.574,-7.524
"4592227165","5603",tram_stop,Centre de Maintenance,33.58,-7.513
"4592227166","5603",tram_stop,Ennassim,33.585,-7.505
"4592227167","5603",tram_stop,Hôpital Sidi Moumen,33.577,-7.518
"4592227168","5603",tram_stop,Mohamed Zefzaf,33.582,-7.509
"4592815883","5603",tram_stop,Agdal-Avenue de France أكدال-شارع فرنسا,33.997,-6.849
"4592815884","5603",tram_stop,Bab Rouah باب الرواح,34.012,-6.839
"4592815885","5603",tram_stop,Bibliothèque Nationale المكتبة الوطنية,34.009,-6.843
"4592815886","5603",tram_stop,Cité Universitaire Souissi الحي الجامعي السويسي,33.986,-6.861
"4592815887","5603",tram_stop,Ibn Khaldoun ابن خلدون,34.004,-6.843
"4592815888","5603",tram_stop,Ibn Sina ابن سينا,33.995,-6.852
"4592816489","5603",tram_stop,Madinat Al Irfane مدينة العرفان,33.983,-6.864
"4592816490","5603",tram_stop,Mohammed V - Gare de Rabat محمد الخامس - محطة القطار الرباط,34.016,-6.836
"4592816491","5603",tram_stop,Nations Unies الأمم المتحدة,34,-6.844
"4592816492","5603",tram_stop,Place Al Joulane L1 ساحة الجولان الخط الأول,34.018,-6.831
"4592889789","5603",tram_stop,Arrazi الرازي,34.036,-6.813
"4592889790","5603",tram_stop,Bab Chellah باب شالة,34.024,-6.834
"4592889791","5603",tram_stop,Bab El Had باب الحد,34.021,-6.843
"4592889792","5603",tram_stop,Bab Lamrissa باب لمريسة,34.032,-6.819
"4592889793","5603",tram_stop,Bettana بطانة,34.035,-6.807
"4592889794","5603",tram_stop,Hassan II الحسن الثاني,34.035,-6.800
"4592889795","5603",tram_stop,Hay Karima حي كريمة,34.054,-6.794
"4592889796","5603",tram_stop,Hôpital Moulay Youssef مستشفى مولاي يوسف,34.011,-6.859
"4592889797","5603",tram_stop,Ibn Rochd ابن رشد,33.989,-6.858
"4592889798","5603",tram_stop,La Poste البريد,34.046,-6.807
"4592889799","5603",tram_stop,Medina Rabat الرباط المدينة العتيقة,34.022,-6.839
"4592889800","5603",tram_stop,Place Al Joulane L2 ساحة الجولان الخط الثاني,34.019,-6.831
"4592889801","5603",tram_stop,Place de Russie ساحة روسيا,34.019,-6.850
"4592889802","5603",tram_stop,Sidi Mohammed Ben Abdellah سيدي محمد ابن عبد الله,34.016,-6.855
"4592889803","5603",tram_stop,Tour Hassan صومعة حسان,34.019,-6.827
"4593360321","5641",taxi,station grand taxi,33.859,-5.578
"4594077191","5622",bus_station,,34.798,-5.579
"4594240543","5641",taxi,station grand taxi,33.883,-5.571
"4607427634","5641",taxi,Grand Taxi to Quazzane,34.69,-6.004
"4607427635","5641",taxi,Petit Taxi,34.684,-6.000
"4607472803","5641",taxi,Grand Taxi Chefchaouen,35.112,-5.287
"4613737094","5622",bus_station,Jardin Chellal,35.568,-5.374
"4613737094","5621",bus_stop,Jardin Chellal,35.568,-5.374
"4613737391","5622",bus_station,Lycée Jaber Ibnou Hayane,35.57,-5.383
"4613737391","5621",bus_stop,Lycée Jaber Ibnou Hayane,35.57,-5.383
"4613785689","5622",bus_station,Souk Al Imam Malik,35.57,-5.387
"4613785689","5621",bus_stop,Souk Al Imam Malik,35.57,-5.387
"4622388989","5621",bus_stop,,31.639,-7.998
"4642373236","5621",bus_stop,Caserne Daroua,33.411,-7.533
"4650000728","5621",bus_stop,Station Inov,33.521,-7.754
"4657545590","5621",bus_stop,,31.632,-7.983
"4660853989","5621",bus_stop,محطة السيزوكي,35.168,-5.276
"4680929389","5621",bus_stop,,31.558,-7.657
"4686787790","5622",bus_station,Aéroport nouacer 150217,33.374,-7.581
"4697889491","5622",bus_station,اغير اودرضور,30.443,-9.545
"4707435945","5621",bus_stop,Oulad Ahmed,33.496,-7.727
"4716538095","5621",bus_stop,Station al-Andalus,34.262,-6.563
"4717157258","5601",railway_station,Laassilate,33.364,-7.794
"4720745494","5621",bus_stop,Café Mamounia,34.05,-6.801
"4723249223","5621",bus_stop,Mosquée Oulad Salh,33.386,-7.685
"4725995190","5641",taxi,,32.338,-6.352
"4726010893","5621",bus_stop,طوبيس بني ملال,32.342,-6.357
"4726012491","5622",bus_station,طوبيس تادلة ⴰⵙⵏⵎⵓⴷⴷⵓ ⵏ ⵜⴰⴷⵍⴰ,32.594,-6.265
"4727685326","5641",taxi,,34.263,-6.562
"4728035788","5621",bus_stop,,30.928,-6.900
"4728036189","5621",bus_stop,,30.93,-6.920
"4728036190","5621",bus_stop,,30.921,-6.912
"4728036191","5621",bus_stop,,30.92,-6.912
"4728036194","5621",bus_stop,L2,30.928,-6.929
"4731214522","5621",bus_stop,Oued Fes,34.055,-5.033
"4738025529","5621",bus_stop,Kiosque bureau City bus,34.042,-5.000
"4744844921","5641",taxi,Petit taxi,34.042,-5.001
"4749306079","5622",bus_station,gare routière,32.344,-6.359
"4760867683","5621",bus_stop,Tribunal Âin Sbaâ,33.599,-7.531
"4762915530","5621",bus_stop,Bus stop Anima shuttle,31.624,-7.995
"4771614021","5641",taxi,,34.087,-5.179
"4771614022","5621",bus_stop,,34.087,-5.179
"4772587622","5621",bus_stop,Fes cité bus,34.023,-4.997
"4777497165","5621",bus_stop,,31.633,-8.009
"4789609623","5621",bus_stop,,32.338,-6.345
"4791831044","5621",bus_stop,City Bus,34.041,-5.004
"4794989024","5621",bus_stop,Tilila-L'Khawarizmi,30.401,-9.519
"4795271921","5621",bus_stop,Hay Hassani,30.414,-9.585
"4815419821","5621",bus_stop,,31.517,-9.759
"4834482921","5622",bus_station,Transport laghzaoui,34.036,-4.998
"4839252172","5621",bus_stop,,34.269,-6.642
"4857595821","5622",bus_station,Transport tourisme,34.035,-4.995
"4874989122","5621",bus_stop,Lakwasse mhamed القواس المحاميد,31.593,-8.031
"4874991922","5621",bus_stop,Lignes 11 - 18 - 20,31.595,-8.034
"4888257623","5621",bus_stop,,33.458,-7.760
"4913778779","5641",taxi,Station de Grand Taxis,34.262,-6.571
"4957432022","5622",bus_station,تاوريرت,34.409,-2.898
"4986415527","5621",bus_stop,,34.049,-6.818
"4986938779","5621",bus_stop,Mosquée Doha,33.57,-7.636
"4986938780","5621",bus_stop,Mosquée Doha,33.571,-7.636
"4986977260","5621",bus_stop,Usine de Thé,33.601,-7.516
"4986977973","5621",bus_stop,Résidence Al Otour,33.597,-7.505
"4986996083","5621",bus_stop,Brasseries du Maroc,33.595,-7.509
"4986999392","5621",bus_stop,Carr. Âraib,33.582,-7.534
"4986999393","5621",bus_stop,Mosquée Abir,33.583,-7.538
"4987001404","5621",bus_stop,Adarissa,33.58,-7.542
"4987001405","5621",bus_stop,Adarissa,33.58,-7.542
"4987006317","5621",bus_stop,Café Britchia,33.577,-7.547
"4987010235","5621",bus_stop,Ifiam,33.573,-7.554
"4987023266","5621",bus_stop,Oriflam Joulan,33.551,-7.568
"4987023267","5621",bus_stop,Oriflam Joulan,33.551,-7.568
"4987027260","5621",bus_stop,Tribunal Administratif,33.56,-7.566
"4987027261","5621",bus_stop,Koréa Sebata,33.552,-7.570
"4987031823","5621",bus_stop,Complexe K. Zebdi,33.557,-7.572
"4987050039","5621",bus_stop,Café Charles Dégo,33.544,-7.568
"4987050040","5621",bus_stop,Café Charles Dégo,33.544,-7.569
"4987053806","5621",bus_stop,Café Arabia,33.539,-7.576
"4987053807","5621",bus_stop,Café Arabia,33.539,-7.576
"4987058397","5621",bus_stop,Stade Tissima,33.544,-7.562
"4987058400","5641",taxi,,33.538,-7.554
"4987071785","5621",bus_stop,Hôpital Sofi,33.603,-7.633
"4987071786","5621",bus_stop,Hôpital Sofi,33.603,-7.633
"4987077824","5621",bus_stop,Résidence Bouaarfa,33.601,-7.636
"4987087174","5621",bus_stop,Maison des Jeunes Zerktouni,33.6,-7.639
"4987087175","5621",bus_stop,Maison des Jeunes Zerktouni,33.6,-7.639
"4987087177","5621",bus_stop,Café Le Lac,33.603,-7.636
"4987092872","5621",bus_stop,Préfecture Police Aïn Chock,33.541,-7.593
"4987092873","5621",bus_stop,Préfecture Police Aïn Chock,33.541,-7.593
"4987950245","5621",bus_stop,Pharmacie Diouri,33.57,-7.601
"4987950246","5621",bus_stop,Pharmacie Diouri,33.57,-7.601
"4987950247","5621",bus_stop,Place Sraghna,33.57,-7.601
"4987950248","5621",bus_stop,Place Sraghna,33.569,-7.601
"4988181785","5621",bus_stop,Sidi Maârouf,33.508,-7.658
"4988358823","5621",bus_stop,Terminus Ait Baha,30.073,-9.152
"4988611023","5641",taxi,Grands Taxis,33.867,-5.548
"4988754626","5641",taxi,Grands Taxis Zaytoun,33.866,-5.553
"4988762322","5641",taxi,Grands Taxi Hamria,33.894,-5.541
"4991397531","5601",railway_station,,34.048,-5.005
"4991398825","5601",railway_station,,34.048,-5.005
"4991399049","5601",railway_station,,34.048,-5.005
"4991399050","5601",railway_station,,34.048,-5.006
"4993628696","5621",bus_stop,Place des Nations,35.777,-5.804
"4993640988","5621",bus_stop,Hawmat Chouk,35.757,-5.792
"4993651216","5621",bus_stop,Place des Arènes,35.764,-5.797
"4993658187","5621",bus_stop,Place Mghogha,35.754,-5.783
"4993665830","5621",bus_stop,2ème Station,35.75,-5.789
"4993668721","5621",bus_stop,Hawmat Chouk,35.757,-5.792
"4993706521","5621",bus_stop,Siège Autasa,35.753,-5.790
"4993728359","5621",bus_stop,Place des Arènes,35.764,-5.797
"4993749225","5621",bus_stop,Siège Autasa,35.753,-5.790
"4993750466","5621",bus_stop,Mghogha,35.738,-5.769
"4993785821","5621",bus_stop,Fromagerie La Vache Qui Rit,35.747,-5.785
"4993785822","5621",bus_stop,Usine Super Lux,35.744,-5.781
"4993785823","5621",bus_stop,Poste de Police,35.742,-5.776
"4994774772","5621",bus_stop,Avenue de la Marche Verte,35.772,-5.814
"4994781087","5621",bus_stop,Boukhalef,35.734,-5.892
"4994781088","5621",bus_stop,Boukhalef,35.734,-5.892
"4994788135","5621",bus_stop,Casabarata,35.766,-5.824
"4994788136","5621",bus_stop,Casabarata,35.767,-5.824
"4995934821","5621",bus_stop,Tiliouine تيليوين,34.035,-6.807
"5004949327","5621",bus_stop,Derb Bouchentouf,33.569,-7.604
"5005720475","5621",bus_stop,Lissasfa لساسفة,33.531,-7.674
"5005770116","5621",bus_stop,Site echocha POTEAU metalique,33.582,-7.641
"5005949393","5621",bus_stop,Oued Lmakhazin,33.595,-7.623
"5005981354","5621",bus_stop,Place Concorde,33.596,-7.622
"5005991349","5621",bus_stop,ANCFCC Rachidi,33.59,-7.621
"5006003768","5621",bus_stop,CIMR,33.582,-7.624
"5006003769","5621",bus_stop,CIMR,33.582,-7.624
"5006013438","5621",bus_stop,Tariq Bno Zyad,33.576,-7.626
"5006018355","5621",bus_stop,Café La Rotende,33.584,-7.623
"5006028907","5621",bus_stop,CM Abdelmoumen,33.578,-7.625
"5006028908","5621",bus_stop,Café Flay,33.58,-7.625
"5006028909","5621",bus_stop,Café Flay,33.58,-7.625
"5006050038","5621",bus_stop,Faculté Médecine,33.576,-7.622
"5006051428","5621",bus_stop,Centre Addiction,33.576,-7.619
"5006072370","5621",bus_stop,Terminus Lahdim,33.89,-5.567
"5006125854","5621",bus_stop,Gare De Meknès,33.898,-5.532
"5006127201","5621",bus_stop,Pont Hamria,33.897,-5.541
"5006148967","5621",bus_stop,Bab Jdid,33.897,-5.574
"5007203884","5621",bus_stop,Pasteur,33.574,-7.626
"5009768968","5621",bus_stop,Lycée Ghazali,33.563,-7.605
"5009768969","5621",bus_stop,Lycée Ghazali,33.563,-7.605
"5009779796","5621",bus_stop,Pharmacie Aicha,33.563,-7.601
"5009853627","5621",bus_stop,Facultés - Route d'El Jadida,33.543,-7.656
"5010088048","5621",bus_stop,ESITH,33.539,-7.662
"5010095975","5621",bus_stop,Facultés - Route d'El Jadida,33.543,-7.654
"5011098749","5621",bus_stop,Station M'dina Bus 2,33.579,-7.635
"5012111457","5621",bus_stop,Mediouna,33.458,-7.517
"5012138012","5621",bus_stop,Place de la Victoire,33.589,-7.609
"5021849035","5621",bus_stop,Collége Allal Ben Abdellah,33.899,-5.548
"5022567358","5621",bus_stop,BIM Roudani,33.585,-7.630
"5022567359","5621",bus_stop,BIM Roudani,33.585,-7.630
"5022604119","5621",bus_stop,Rond Point Mermoz,33.589,-7.626
"5022604120","5621",bus_stop,Eaux et Forêts,33.588,-7.627
"5022636124","5621",bus_stop,Hôtel Mouahidin,33.594,-7.623
"5024337722","5621",bus_stop,Houphouët Boigny,33.599,-7.615
"5025784658","5621",bus_stop,Boulangerie Elkheir,33.552,-7.704
"5025831549","5621",bus_stop,ANCFCC Rachidi,33.591,-7.620
"5026248286","5621",bus_stop,Commune Sidi Belyout,33.595,-7.626
"5026328996","5621",bus_stop,Angle Dakhla/Tichka,33.533,-7.601
"5026765064","5621",bus_stop,Café Grill Antik,33.532,-7.616
"5026765065","5621",bus_stop,Café Idouar Ice,33.534,-7.613
"5026770802","5621",bus_stop,Café Route Andalouss,33.531,-7.620
"5026830842","5621",bus_stop,Résidence B. Elbaida,33.616,-7.484
"5026839605","5621",bus_stop,Pharmacie Place Mekouar,33.612,-7.531
"5026842287","5621",bus_stop,Pizzeria Osteria,33.612,-7.530
"5027061569","5621",bus_stop,PTT Roudani,33.57,-7.644
"5027061570","5621",bus_stop,PTT Roudani,33.57,-7.644
"5027061571","5621",bus_stop,Oulmess,33.572,-7.648
"5027180080","5621",bus_stop,Hay El Falah,33.559,-7.550
"5029862480","5621",bus_stop,Complexe Mohammed V,33.583,-7.649
"5029883682","5621",bus_stop,Vélodrome,33.588,-7.645
"5029883683","5621",bus_stop,Jardin Val d'Anfa,33.591,-7.653
"5029883684","5621",bus_stop,Clinique Val Anfa,33.59,-7.653
"5029883710","5621",bus_stop,Résidence Rio,33.592,-7.642
"5031104857","5621",bus_stop,Commissariat Moulay Chrif,33.594,-7.570
"5031104858","5621",bus_stop,Croisement Route Yaâta,33.592,-7.565
"5032036981","5621",bus_stop,Marjane Aïn Sbaâ,33.596,-7.530
"5032077682","5621",bus_stop,Ferrara,33.555,-7.686
"5032109182","5621",bus_stop,C.A. Tensift,33.553,-7.685
"5032217463","5621",bus_stop,Hay Hassani,33.572,-7.677
"5032520810","5621",bus_stop,Tariq,33.608,-7.515
"5032746172","5621",bus_stop,Nahda,33.7,-7.352
"5032765013","5621",bus_stop,Restaurant Wijdan,33.7,-7.363
"5032780602","5621",bus_stop,Groupe Scolaire Rodin,33.698,-7.366
"5032780603","5621",bus_stop,Groupe Scolaire Rodin,33.698,-7.366
"5032790665","5621",bus_stop,Angle 11 janvier/Résistance,33.699,-7.370
"5032790666","5621",bus_stop,Collège Maghreb Arabi,33.695,-7.373
"5032790667","5621",bus_stop,Collège Maghreb Arabi,33.695,-7.373
"5032984586","5621",bus_stop,M'salla (Mohammedia) 1,33.693,-7.375
"5032984587","5621",bus_stop,M'salla (Mohammedia) 1,33.693,-7.375
